[{"name":"Narsarsuaq ","city":"Narssarssuaq","country":"Greenland","IATA":"UAK","ICAO":"BGBW","lat":"61.1604995728","lon":"-45.4259986877","timezone":"-3"},{"name":"Godthaab / Nuuk ","city":"Godthaab","country":"Greenland","IATA":"GOH","ICAO":"BGGH","lat":"64.19090271","lon":"-51.6781005859","timezone":"-3"},{"name":"Kangerlussuaq ","city":"Sondrestrom","country":"Greenland","IATA":"SFJ","ICAO":"BGSF","lat":"67.0122218992","lon":"-50.7116031647","timezone":"-3"},{"name":"Thule Air Base","city":"Thule","country":"Greenland","IATA":"THU","ICAO":"BGTL","lat":"76.5311965942","lon":"-68.7032012939","timezone":"-4"},{"name":"Sault Ste Marie ","city":"Sault Sainte Marie","country":"Canada","IATA":"YAM","ICAO":"CYAM","lat":"46.48500061035156","lon":"-84.5093994140625","timezone":"-5"},{"name":"St. Anthony ","city":"St. Anthony","country":"Canada","IATA":"YAY","ICAO":"CYAY","lat":"51.3918991089","lon":"-56.083099365200006","timezone":"-3.5"},{"name":"Tofino / Long Beach ","city":"Tofino","country":"Canada","IATA":"YAZ","ICAO":"CYAZ","lat":"49.079833","lon":"-125.775583","timezone":"-8"},{"name":"Kugaaruk ","city":"Pelly Bay","country":"Canada","IATA":"YBB","ICAO":"CYBB","lat":"68.534401","lon":"-89.808098","timezone":"-7"},{"name":"Baie Comeau ","city":"Baie Comeau","country":"Canada","IATA":"YBC","ICAO":"CYBC","lat":"49.13249969482422","lon":"-68.20439910888672","timezone":"-5"},{"name":"CFB Bagotville","city":"Bagotville","country":"Canada","IATA":"YBG","ICAO":"CYBG","lat":"48.33060073852539","lon":"-70.99639892578125","timezone":"-5"},{"name":"Baker Lake ","city":"Baker Lake","country":"Canada","IATA":"YBK","ICAO":"CYBK","lat":"64.29889678960001","lon":"-96.077796936","timezone":"-6"},{"name":"Campbell River ","city":"Campbell River","country":"Canada","IATA":"YBL","ICAO":"CYBL","lat":"49.950801849365234","lon":"-125.27100372314453","timezone":"-8"},{"name":"Brandon Municipal ","city":"Brandon","country":"Canada","IATA":"YBR","ICAO":"CYBR","lat":"49.91","lon":"-99.951897","timezone":"-6"},{"name":"Cambridge Bay ","city":"Cambridge Bay","country":"Canada","IATA":"YCB","ICAO":"CYCB","lat":"69.1081008911","lon":"-105.138000488","timezone":"-7"},{"name":"Nanaimo ","city":"Nanaimo","country":"Canada","IATA":"YCD","ICAO":"CYCD","lat":"49.054970224899996","lon":"-123.869862556","timezone":"-8"},{"name":"Castlegar/West Kootenay Regional ","city":"Castlegar","country":"Canada","IATA":"YCG","ICAO":"CYCG","lat":"49.2963981628","lon":"-117.632003784","timezone":"-8"},{"name":"Miramichi ","city":"Chatham","country":"Canada","IATA":"YCH","ICAO":"CYCH","lat":"47.007801","lon":"-65.449203","timezone":"-4"},{"name":"Charlo ","city":"Charlo","country":"Canada","IATA":"YCL","ICAO":"CYCL","lat":"47.990799","lon":"-66.330299","timezone":"-4"},{"name":"Kugluktuk ","city":"Coppermine","country":"Canada","IATA":"YCO","ICAO":"CYCO","lat":"67.816704","lon":"-115.143997","timezone":"-7"},{"name":"Coronation ","city":"Coronation","country":"Canada","IATA":"YCT","ICAO":"CYCT","lat":"52.0750007629","lon":"-111.444999695","timezone":"-7"},{"name":"Chilliwack ","city":"Chilliwack","country":"Canada","IATA":"YCW","ICAO":"CYCW","lat":"49.1528015137","lon":"-121.939002991","timezone":"-8"},{"name":"Clyde River ","city":"Clyde River","country":"Canada","IATA":"YCY","ICAO":"CYCY","lat":"70.4860992432","lon":"-68.5167007446","timezone":"-5"},{"name":"Coral Harbour ","city":"Coral Harbour","country":"Canada","IATA":"YZS","ICAO":"CYZS","lat":"64.1932983398","lon":"-83.3593978882","timezone":"-5"},{"name":"Dawson City ","city":"Dawson","country":"Canada","IATA":"YDA","ICAO":"CYDA","lat":"64.04309844970703","lon":"-139.1280059814453","timezone":"-8"},{"name":"Burwash ","city":"Burwash","country":"Canada","IATA":"YDB","ICAO":"CYDB","lat":"61.37110137939453","lon":"-139.04100036621094","timezone":"-8"},{"name":"Deer Lake ","city":"Deer Lake","country":"Canada","IATA":"YDF","ICAO":"CYDF","lat":"49.21080017089844","lon":"-57.39139938354492","timezone":"-3.5"},{"name":"Dease Lake ","city":"Dease Lake","country":"Canada","IATA":"YDL","ICAO":"CYDL","lat":"58.4221992493","lon":"-130.031997681","timezone":"-8"},{"name":"Dauphin Barker ","city":"Dauphin","country":"Canada","IATA":"YDN","ICAO":"CYDN","lat":"51.100799560546875","lon":"-100.052001953125","timezone":"-6"},{"name":"Dawson Creek ","city":"Dawson Creek","country":"Canada","IATA":"YDQ","ICAO":"CYDQ","lat":"55.7422981262207","lon":"-120.18299865722656","timezone":"-7"},{"name":"Edmonton Intl ","city":"Edmonton","country":"Canada","IATA":"YEG","ICAO":"CYEG","lat":"53.309700012200004","lon":"-113.580001831","timezone":"-7"},{"name":"Arviat ","city":"Eskimo Point","country":"Canada","IATA":"YEK","ICAO":"CYEK","lat":"61.0942001343","lon":"-94.07080078119999","timezone":"-6"},{"name":"Estevan ","city":"Estevan","country":"Canada","IATA":"YEN","ICAO":"CYEN","lat":"49.2103004456","lon":"-102.966003418","timezone":"-6"},{"name":"Edson ","city":"Edson","country":"Canada","IATA":"YET","ICAO":"CYET","lat":"53.578899383499994","lon":"-116.464996338","timezone":"-7"},{"name":"Eureka ","city":"Eureka","country":"Canada","IATA":"YEU","ICAO":"CYEU","lat":"79.9946975708","lon":"-85.814201355","timezone":"-6"},{"name":"Inuvik Mike Zubko ","city":"Inuvik","country":"Canada","IATA":"YEV","ICAO":"CYEV","lat":"68.30419921880001","lon":"-133.483001709","timezone":"-7"},{"name":"Iqaluit ","city":"Iqaluit","country":"Canada","IATA":"YFB","ICAO":"CYFB","lat":"63.756402","lon":"-68.555801","timezone":"-5"},{"name":"Fredericton ","city":"Fredericton","country":"Canada","IATA":"YFC","ICAO":"CYFC","lat":"45.868900299072266","lon":"-66.53720092773438","timezone":"-4"},{"name":"Forestville ","city":"Forestville","country":"Canada","IATA":"YFE","ICAO":"CYFE","lat":"48.74610137939453","lon":"-69.09719848632812","timezone":"-5"},{"name":"Flin Flon ","city":"Flin Flon","country":"Canada","IATA":"YFO","ICAO":"CYFO","lat":"54.6781005859375","lon":"-101.68199920654297","timezone":"-6"},{"name":"Fort Resolution ","city":"Fort Resolution","country":"Canada","IATA":"YFR","ICAO":"CYFR","lat":"61.1808013916","lon":"-113.690002441","timezone":"-7"},{"name":"Fort Simpson ","city":"Fort Simpson","country":"Canada","IATA":"YFS","ICAO":"CYFS","lat":"61.76020050048828","lon":"-121.23699951171875","timezone":"-7"},{"name":"Kingston Norman Rogers ","city":"Kingston","country":"Canada","IATA":"YGK","ICAO":"CYGK","lat":"44.22529983520508","lon":"-76.5969009399414","timezone":"-5"},{"name":"La Grande Rivière ","city":"La Grande Riviere","country":"Canada","IATA":"YGL","ICAO":"CYGL","lat":"53.625301361083984","lon":"-77.7042007446289","timezone":"-5"},{"name":"Gaspé (Michel-Pouliot) ","city":"Gaspe","country":"Canada","IATA":"YGP","ICAO":"CYGP","lat":"48.7752990723","lon":"-64.4785995483","timezone":"-5"},{"name":"Geraldton Greenstone Regional ","city":"Geraldton","country":"Canada","IATA":"YGQ","ICAO":"CYGQ","lat":"49.77830123901367","lon":"-86.93939971923828","timezone":"-5"},{"name":"Îles-de-la-Madeleine ","city":"Iles De La Madeleine","country":"Canada","IATA":"YGR","ICAO":"CYGR","lat":"47.42470169067383","lon":"-61.778099060058594","timezone":"-5"},{"name":"Hudson Bay ","city":"Hudson Bay","country":"Canada","IATA":"YHB","ICAO":"CYHB","lat":"52.8166999817","lon":"-102.310997009","timezone":"-6"},{"name":"Dryden Regional ","city":"Dryden","country":"Canada","IATA":"YHD","ICAO":"CYHD","lat":"49.831699","lon":"-92.744202","timezone":"-6"},{"name":"Ulukhaktok Holman ","city":"Holman Island","country":"Canada","IATA":"YHI","ICAO":"CYHI","lat":"70.76280212402344","lon":"-117.80599975585938","timezone":"-7"},{"name":"Gjoa Haven ","city":"Gjoa Haven","country":"Canada","IATA":"YHK","ICAO":"CYHK","lat":"68.635597229","lon":"-95.84970092770001","timezone":"-7"},{"name":"John C. Munro Hamilton Intl ","city":"Hamilton","country":"Canada","IATA":"YHM","ICAO":"CYHM","lat":"43.173599243199995","lon":"-79.93499755859999","timezone":"-5"},{"name":"Montréal / Saint-Hubert ","city":"Montreal","country":"Canada","IATA":"YHU","ICAO":"CYHU","lat":"45.5175018311","lon":"-73.4169006348","timezone":"-5"},{"name":"Hay River / Merlyn Carter ","city":"Hay River","country":"Canada","IATA":"YHY","ICAO":"CYHY","lat":"60.8396987915","lon":"-115.782997131","timezone":"-7"},{"name":"Halifax / Stanfield Intl ","city":"Halifax","country":"Canada","IATA":"YHZ","ICAO":"CYHZ","lat":"44.8807983398","lon":"-63.5085983276","timezone":"-4"},{"name":"Atikokan Municipal ","city":"Atikokan","country":"Canada","IATA":"YIB","ICAO":"CYIB","lat":"48.7738990784","lon":"-91.6386032104","timezone":"-5"},{"name":"Pond Inlet ","city":"Pond Inlet","country":"Canada","IATA":"YIO","ICAO":"CYIO","lat":"72.6832962036","lon":"-77.9666976929","timezone":"-5"},{"name":"St Jean ","city":"St. Jean","country":"Canada","IATA":"YJN","ICAO":"CYJN","lat":"45.29439926147461","lon":"-73.28109741210938","timezone":"-5"},{"name":"Stephenville ","city":"Stephenville","country":"Canada","IATA":"YJT","ICAO":"CYJT","lat":"48.5442008972168","lon":"-58.54999923706055","timezone":"-3.5"},{"name":"Kamloops ","city":"Kamloops","country":"Canada","IATA":"YKA","ICAO":"CYKA","lat":"50.7022018433","lon":"-120.444000244","timezone":"-8"},{"name":"Waterloo ","city":"Waterloo","country":"Canada","IATA":"YKF","ICAO":"CYKF","lat":"43.460800170899994","lon":"-80.3786010742","timezone":"-5"},{"name":"Schefferville ","city":"Schefferville","country":"Canada","IATA":"YKL","ICAO":"CYKL","lat":"54.805301666259766","lon":"-66.8052978515625","timezone":"-5"},{"name":"Kindersley ","city":"Kindersley","country":"Canada","IATA":"YKY","ICAO":"CYKY","lat":"51.5175018311","lon":"-109.180999756","timezone":"-6"},{"name":"Buttonville Municipal ","city":"Toronto","country":"Canada","IATA":"YKZ","ICAO":"CYKZ","lat":"43.86220169067383","lon":"-79.37000274658203","timezone":"-5"},{"name":"Chapleau ","city":"Chapleau","country":"Canada","IATA":"YLD","ICAO":"CYLD","lat":"47.81999969482422","lon":"-83.3467025756836","timezone":"-5"},{"name":"Meadow Lake ","city":"Meadow Lake","country":"Canada","IATA":"YLJ","ICAO":"CYLJ","lat":"54.125301361083984","lon":"-108.52300262451172","timezone":"-6"},{"name":"Lloydminster ","city":"Lloydminster","country":"Canada","IATA":"YLL","ICAO":"CYLL","lat":"53.309200286865234","lon":"-110.072998046875","timezone":"-7"},{"name":"Alert ","city":"Alert","country":"Canada","IATA":"YLT","ICAO":"CYLT","lat":"82.51779937740001","lon":"-62.2806015015","timezone":"-5"},{"name":"Kelowna Intl ","city":"Kelowna","country":"Canada","IATA":"YLW","ICAO":"CYLW","lat":"49.9561004639","lon":"-119.377998352","timezone":"-8"},{"name":"Mayo ","city":"Mayo","country":"Canada","IATA":"YMA","ICAO":"CYMA","lat":"63.61640167236328","lon":"-135.8679962158203","timezone":"-8"},{"name":"Moose Jaw Air Vice Marshal C. M. McEwen ","city":"Moose Jaw","country":"Canada","IATA":"YMJ","ICAO":"CYMJ","lat":"50.330299377441406","lon":"-105.55899810791016","timezone":"-6"},{"name":"Fort McMurray ","city":"Fort Mcmurray","country":"Canada","IATA":"YMM","ICAO":"CYMM","lat":"56.653301239","lon":"-111.222000122","timezone":"-7"},{"name":"Moosonee ","city":"Moosonee","country":"Canada","IATA":"YMO","ICAO":"CYMO","lat":"51.291099548339844","lon":"-80.60780334472656","timezone":"-5"},{"name":"Maniwaki ","city":"Maniwaki","country":"Canada","IATA":"YMW","ICAO":"CYMW","lat":"46.2728004456","lon":"-75.9906005859","timezone":"-5"},{"name":"Montreal Intl (Mirabel) ","city":"Montreal","country":"Canada","IATA":"YMX","ICAO":"CYMX","lat":"45.679501","lon":"-74.038696","timezone":"-5"},{"name":"Natashquan ","city":"Natashquan","country":"Canada","IATA":"YNA","ICAO":"CYNA","lat":"50.189998626708984","lon":"-61.78919982910156","timezone":"-5"},{"name":"Ottawa / Gatineau ","city":"Gatineau","country":"Canada","IATA":"YND","ICAO":"CYND","lat":"45.521701812699995","lon":"-75.5635986328","timezone":"-5"},{"name":"Matagami ","city":"Matagami","country":"Canada","IATA":"YNM","ICAO":"CYNM","lat":"49.76169967651367","lon":"-77.80280303955078","timezone":"-5"},{"name":"Old Crow ","city":"Old Crow","country":"Canada","IATA":"YOC","ICAO":"CYOC","lat":"67.57060241699219","lon":"-139.83900451660156","timezone":"-8"},{"name":"CFB Cold Lake","city":"Cold Lake","country":"Canada","IATA":"YOD","ICAO":"CYOD","lat":"54.404998779296875","lon":"-110.27899932861328","timezone":"-7"},{"name":"High Level ","city":"High Level","country":"Canada","IATA":"YOJ","ICAO":"CYOJ","lat":"58.62139892578125","lon":"-117.16500091552734","timezone":"-7"},{"name":"Ottawa Macdonald-Cartier Intl ","city":"Ottawa","country":"Canada","IATA":"YOW","ICAO":"CYOW","lat":"45.3224983215332","lon":"-75.66919708251953","timezone":"-5"},{"name":"Prince Albert Glass Field","city":"Prince Albert","country":"Canada","IATA":"YPA","ICAO":"CYPA","lat":"53.214199066199996","lon":"-105.672996521","timezone":"-6"},{"name":"Peace River ","city":"Peace River","country":"Canada","IATA":"YPE","ICAO":"CYPE","lat":"56.226898","lon":"-117.446999","timezone":"-7"},{"name":"Southport ","city":"Portage-la-prairie","country":"Canada","IATA":"YPG","ICAO":"CYPG","lat":"49.903099","lon":"-98.273817","timezone":"-6"},{"name":"Pickle Lake ","city":"Pickle Lake","country":"Canada","IATA":"YPL","ICAO":"CYPL","lat":"51.4463996887207","lon":"-90.21420288085938","timezone":"-5"},{"name":"Port Menier ","city":"Port Menier","country":"Canada","IATA":"YPN","ICAO":"CYPN","lat":"49.83639907836914","lon":"-64.2885971069336","timezone":"-5"},{"name":"Peterborough ","city":"Peterborough","country":"Canada","IATA":"YPQ","ICAO":"CYPQ","lat":"44.22999954223633","lon":"-78.36329650878906","timezone":"-5"},{"name":"Prince Rupert ","city":"Prince Pupert","country":"Canada","IATA":"YPR","ICAO":"CYPR","lat":"54.286098480199996","lon":"-130.445007324","timezone":"-8"},{"name":"Fort Chipewyan ","city":"Fort Chipewyan","country":"Canada","IATA":"YPY","ICAO":"CYPY","lat":"58.7672004699707","lon":"-111.11699676513672","timezone":"-7"},{"name":"Muskoka ","city":"Muskoka","country":"Canada","IATA":"YQA","ICAO":"CYQA","lat":"44.974700927734375","lon":"-79.30329895019531","timezone":"-5"},{"name":"Quebec Jean Lesage Intl ","city":"Quebec","country":"Canada","IATA":"YQB","ICAO":"CYQB","lat":"46.7911","lon":"-71.393303","timezone":"-5"},{"name":"Red Deer Regional ","city":"Red Deer Industrial","country":"Canada","IATA":"YQF","ICAO":"CYQF","lat":"52.18220138549805","lon":"-113.89399719238281","timezone":"-7"},{"name":"Windsor ","city":"Windsor","country":"Canada","IATA":"YQG","ICAO":"CYQG","lat":"42.27560043334961","lon":"-82.95559692382812","timezone":"-5"},{"name":"Watson Lake ","city":"Watson Lake","country":"Canada","IATA":"YQH","ICAO":"CYQH","lat":"60.11640167236328","lon":"-128.82200622558594","timezone":"-8"},{"name":"Kenora ","city":"Kenora","country":"Canada","IATA":"YQK","ICAO":"CYQK","lat":"49.788299560546875","lon":"-94.36309814453125","timezone":"-6"},{"name":"Lethbridge County ","city":"Lethbridge","country":"Canada","IATA":"YQL","ICAO":"CYQL","lat":"49.6302986145","lon":"-112.800003052","timezone":"-7"},{"name":"Greater Moncton Intl ","city":"Moncton","country":"Canada","IATA":"YQM","ICAO":"CYQM","lat":"46.11220169067383","lon":"-64.67859649658203","timezone":"-4"},{"name":"Comox ","city":"Comox","country":"Canada","IATA":"YQQ","ICAO":"CYQQ","lat":"49.71080017089844","lon":"-124.88700103759766","timezone":"-8"},{"name":"Regina Intl ","city":"Regina","country":"Canada","IATA":"YQR","ICAO":"CYQR","lat":"50.43190002441406","lon":"-104.66600036621094","timezone":"-6"},{"name":"Thunder Bay ","city":"Thunder Bay","country":"Canada","IATA":"YQT","ICAO":"CYQT","lat":"48.37189865112305","lon":"-89.32389831542969","timezone":"-5"},{"name":"Grande Prairie ","city":"Grande Prairie","country":"Canada","IATA":"YQU","ICAO":"CYQU","lat":"55.1796989441","lon":"-118.885002136","timezone":"-7"},{"name":"Yorkton Municipal ","city":"Yorkton","country":"Canada","IATA":"YQV","ICAO":"CYQV","lat":"51.26470184326172","lon":"-102.46199798583984","timezone":"-6"},{"name":"North Battleford ","city":"North Battleford","country":"Canada","IATA":"YQW","ICAO":"CYQW","lat":"52.76919937133789","lon":"-108.24400329589844","timezone":"-6"},{"name":"Gander Intl ","city":"Gander","country":"Canada","IATA":"YQX","ICAO":"CYQX","lat":"48.9369010925293","lon":"-54.56809997558594","timezone":"-3.5"},{"name":"Sydney / J.A. Douglas McCurdy ","city":"Sydney","country":"Canada","IATA":"YQY","ICAO":"CYQY","lat":"46.1614","lon":"-60.047798","timezone":"-4"},{"name":"Quesnel ","city":"Quesnel","country":"Canada","IATA":"YQZ","ICAO":"CYQZ","lat":"53.026100158691406","lon":"-122.51000213623047","timezone":"-8"},{"name":"Resolute Bay ","city":"Resolute","country":"Canada","IATA":"YRB","ICAO":"CYRB","lat":"74.7169036865","lon":"-94.9693984985","timezone":"-6"},{"name":"Rivière-du-Loup ","city":"Riviere Du Loup","country":"Canada","IATA":"YRI","ICAO":"CYRI","lat":"47.764400482177734","lon":"-69.58470153808594","timezone":"-5"},{"name":"Roberval ","city":"Roberval","country":"Canada","IATA":"YRJ","ICAO":"CYRJ","lat":"48.52000045776367","lon":"-72.2656021118164","timezone":"-5"},{"name":"Rocky Mountain House ","city":"Rocky Mountain House","country":"Canada","IATA":"YRM","ICAO":"CYRM","lat":"52.4296989441","lon":"-114.903999329","timezone":"-7"},{"name":"Rankin Inlet ","city":"Rankin Inlet","country":"Canada","IATA":"YRT","ICAO":"CYRT","lat":"62.8114013672","lon":"-92.1157989502","timezone":"-6"},{"name":"Sudbury ","city":"Sudbury","country":"Canada","IATA":"YSB","ICAO":"CYSB","lat":"46.625","lon":"-80.79889678955078","timezone":"-5"},{"name":"Sherbrooke ","city":"Sherbrooke","country":"Canada","IATA":"YSC","ICAO":"CYSC","lat":"45.4385986328125","lon":"-71.69139862060547","timezone":"-5"},{"name":"Saint John ","city":"St. John","country":"Canada","IATA":"YSJ","ICAO":"CYSJ","lat":"45.31610107421875","lon":"-65.89029693603516","timezone":"-4"},{"name":"Fort Smith ","city":"Fort Smith","country":"Canada","IATA":"YSM","ICAO":"CYSM","lat":"60.020301818847656","lon":"-111.96199798583984","timezone":"-7"},{"name":"Nanisivik ","city":"Nanisivik","country":"Canada","IATA":"YSR","ICAO":"CYSR","lat":"72.982201","lon":"-84.613602","timezone":"-5"},{"name":"Summerside ","city":"Summerside","country":"Canada","IATA":"YSU","ICAO":"CYSU","lat":"46.44060134887695","lon":"-63.83359909057617","timezone":"-4"},{"name":"Sachs Harbour (David Nasogaluak Jr. Saaryuaq) ","city":"Sachs Harbour","country":"Canada","IATA":"YSY","ICAO":"CYSY","lat":"71.9938964844","lon":"-125.242996216","timezone":"-7"},{"name":"Cape Dorset ","city":"Cape Dorset","country":"Canada","IATA":"YTE","ICAO":"CYTE","lat":"64.2300033569","lon":"-76.5267028809","timezone":"-5"},{"name":"Thompson ","city":"Thompson","country":"Canada","IATA":"YTH","ICAO":"CYTH","lat":"55.80110168457031","lon":"-97.86419677734375","timezone":"-6"},{"name":"CFB Trenton","city":"Trenton","country":"Canada","IATA":"YTR","ICAO":"CYTR","lat":"44.118900299072266","lon":"-77.5280990600586","timezone":"-5"},{"name":"Timmins/Victor M. Power","city":"Timmins","country":"Canada","IATA":"YTS","ICAO":"CYTS","lat":"48.569698333699996","lon":"-81.376701355","timezone":"-5"},{"name":"Billy Bishop Toronto City Centre ","city":"Toronto","country":"Canada","IATA":"YTZ","ICAO":"CYTZ","lat":"43.627499","lon":"-79.396202","timezone":"-5"},{"name":"Tuktoyaktuk ","city":"Tuktoyaktuk","country":"Canada","IATA":"YUB","ICAO":"CYUB","lat":"69.43329620361328","lon":"-133.0260009765625","timezone":"-7"},{"name":"Montreal / Pierre Elliott Trudeau Intl ","city":"Montreal","country":"Canada","IATA":"YUL","ICAO":"CYUL","lat":"45.4706001282","lon":"-73.7407989502","timezone":"-5"},{"name":"Repulse Bay ","city":"Repulse Bay","country":"Canada","IATA":"YUT","ICAO":"CYUT","lat":"66.5214004517","lon":"-86.22470092770001","timezone":"-6"},{"name":"Hall Beach ","city":"Hall Beach","country":"Canada","IATA":"YUX","ICAO":"CYUX","lat":"68.77610015869999","lon":"-81.2425","timezone":"-5"},{"name":"Rouyn Noranda ","city":"Rouyn","country":"Canada","IATA":"YUY","ICAO":"CYUY","lat":"48.20610046386719","lon":"-78.83560180664062","timezone":"-5"},{"name":"La Ronge ","city":"La Ronge","country":"Canada","IATA":"YVC","ICAO":"CYVC","lat":"55.151401519800004","lon":"-105.262001038","timezone":"-6"},{"name":"Vermilion ","city":"Vermillion","country":"Canada","IATA":"YVG","ICAO":"CYVG","lat":"53.355800628699996","lon":"-110.823997498","timezone":"-7"},{"name":"Qikiqtarjuaq ","city":"Broughton Island","country":"Canada","IATA":"YVM","ICAO":"CYVM","lat":"67.5457992554","lon":"-64.03140258789999","timezone":"-5"},{"name":"Val-d’Or ","city":"Val D’or","country":"Canada","IATA":"YVO","ICAO":"CYVO","lat":"48.0532989502","lon":"-77.7827987671","timezone":"-5"},{"name":"Kuujjuaq ","city":"Quujjuaq","country":"Canada","IATA":"YVP","ICAO":"CYVP","lat":"58.096099853515625","lon":"-68.4269027709961","timezone":"-5"},{"name":"Norman Wells ","city":"Norman Wells","country":"Canada","IATA":"YVQ","ICAO":"CYVQ","lat":"65.28160095214844","lon":"-126.7979965209961","timezone":"-7"},{"name":"Vancouver Intl ","city":"Vancouver","country":"Canada","IATA":"YVR","ICAO":"CYVR","lat":"49.193901062","lon":"-123.183998108","timezone":"-8"},{"name":"Buffalo Narrows ","city":"Buffalo Narrows","country":"Canada","IATA":"YVT","ICAO":"CYVT","lat":"55.8418998718","lon":"-108.417999268","timezone":"-6"},{"name":"Wiarton ","city":"Wiarton","country":"Canada","IATA":"YVV","ICAO":"CYVV","lat":"44.7458","lon":"-81.107201","timezone":"-5"},{"name":"Petawawa ","city":"Petawawa","country":"Canada","IATA":"YWA","ICAO":"CYWA","lat":"45.95220184326172","lon":"-77.31919860839844","timezone":"-5"},{"name":"Winnipeg / James Armstrong Richardson Intl ","city":"Winnipeg","country":"Canada","IATA":"YWG","ICAO":"CYWG","lat":"49.909999847399995","lon":"-97.2398986816","timezone":"-6"},{"name":"Wabush ","city":"Wabush","country":"Canada","IATA":"YWK","ICAO":"CYWK","lat":"52.92190170288086","lon":"-66.8644027709961","timezone":"-4"},{"name":"Williams Lake ","city":"Williams Lake","country":"Canada","IATA":"YWL","ICAO":"CYWL","lat":"52.1831016541","lon":"-122.054000854","timezone":"-8"},{"name":"Wrigley ","city":"Wrigley","country":"Canada","IATA":"YWY","ICAO":"CYWY","lat":"63.20940017700195","lon":"-123.43699645996094","timezone":"-7"},{"name":"Cranbrook/Canadian Rockies Intl ","city":"Cranbrook","country":"Canada","IATA":"YXC","ICAO":"CYXC","lat":"49.610801696777","lon":"-115.78199768066","timezone":"-7"},{"name":"Edmonton City Centre (Blatchford Field) ","city":"Edmonton","country":"Canada","IATA":"YXD","ICAO":"CYXD","lat":"53.5724983215","lon":"-113.521003723","timezone":"-7"},{"name":"Saskatoon John G. Diefenbaker Intl ","city":"Saskatoon","country":"Canada","IATA":"YXE","ICAO":"CYXE","lat":"52.170799255371094","lon":"-106.69999694824219","timezone":"-6"},{"name":"Medicine Hat ","city":"Medicine Hat","country":"Canada","IATA":"YXH","ICAO":"CYXH","lat":"50.01890182495117","lon":"-110.72100067138672","timezone":"-7"},{"name":"Fort St John ","city":"Fort Saint John","country":"Canada","IATA":"YXJ","ICAO":"CYXJ","lat":"56.23809814453125","lon":"-120.73999786376953","timezone":"-7"},{"name":"Sioux Lookout ","city":"Sioux Lookout","country":"Canada","IATA":"YXL","ICAO":"CYXL","lat":"50.11389923095703","lon":"-91.9052963256836","timezone":"-6"},{"name":"Pangnirtung ","city":"Pangnirtung","country":"Canada","IATA":"YXP","ICAO":"CYXP","lat":"66.1449966431","lon":"-65.71360015869999","timezone":"-5"},{"name":"Earlton (Timiskaming Regional) ","city":"Earlton","country":"Canada","IATA":"YXR","ICAO":"CYXR","lat":"47.697400654599996","lon":"-79.8473453522","timezone":"-5"},{"name":"Prince George ","city":"Prince George","country":"Canada","IATA":"YXS","ICAO":"CYXS","lat":"53.8894004822","lon":"-122.679000854","timezone":"-8"},{"name":"Northwest Regional Terrace-Kitimat","city":"Terrace","country":"Canada","IATA":"YXT","ICAO":"CYXT","lat":"54.468498","lon":"-128.576009","timezone":"-8"},{"name":"London ","city":"London","country":"Canada","IATA":"YXU","ICAO":"CYXU","lat":"43.035599","lon":"-81.1539","timezone":"-5"},{"name":"Abbotsford ","city":"Abbotsford","country":"Canada","IATA":"YXX","ICAO":"CYXX","lat":"49.025299072265625","lon":"-122.36100006103516","timezone":"-8"},{"name":"Whitehorse / Erik Nielsen Intl ","city":"Whitehorse","country":"Canada","IATA":"YXY","ICAO":"CYXY","lat":"60.7095985413","lon":"-135.067001343","timezone":"-8"},{"name":"North Bay Jack Garland ","city":"North Bay","country":"Canada","IATA":"YYB","ICAO":"CYYB","lat":"46.363602","lon":"-79.422798","timezone":"-5"},{"name":"Calgary Intl ","city":"Calgary","country":"Canada","IATA":"YYC","ICAO":"CYYC","lat":"51.113899231","lon":"-114.019996643","timezone":"-7"},{"name":"Smithers ","city":"Smithers","country":"Canada","IATA":"YYD","ICAO":"CYYD","lat":"54.82469940185547","lon":"-127.18299865722656","timezone":"-8"},{"name":"Fort Nelson ","city":"Fort Nelson","country":"Canada","IATA":"YYE","ICAO":"CYYE","lat":"58.8363990784","lon":"-122.597000122","timezone":"-8"},{"name":"Penticton ","city":"Penticton","country":"Canada","IATA":"YYF","ICAO":"CYYF","lat":"49.46310043334961","lon":"-119.60199737548828","timezone":"-8"},{"name":"Charlottetown ","city":"Charlottetown","country":"Canada","IATA":"YYG","ICAO":"CYYG","lat":"46.290000915527344","lon":"-63.12110137939453","timezone":"-4"},{"name":"Taloyoak ","city":"Spence Bay","country":"Canada","IATA":"YYH","ICAO":"CYYH","lat":"69.5466995239","lon":"-93.5766983032","timezone":"-7"},{"name":"Victoria Intl ","city":"Victoria","country":"Canada","IATA":"YYJ","ICAO":"CYYJ","lat":"48.646900177","lon":"-123.426002502","timezone":"-8"},{"name":"Lynn Lake ","city":"Lynn Lake","country":"Canada","IATA":"YYL","ICAO":"CYYL","lat":"56.86389923095703","lon":"-101.07599639892578","timezone":"-6"},{"name":"Swift Current ","city":"Swift Current","country":"Canada","IATA":"YYN","ICAO":"CYYN","lat":"50.291900634799994","lon":"-107.691001892","timezone":"-6"},{"name":"Churchill ","city":"Churchill","country":"Canada","IATA":"YYQ","ICAO":"CYYQ","lat":"58.739200592041016","lon":"-94.06500244140625","timezone":"-6"},{"name":"Goose Bay ","city":"Goose Bay","country":"Canada","IATA":"YYR","ICAO":"CYYR","lat":"53.3191986084","lon":"-60.4258003235","timezone":"-4"},{"name":"St. John’s Intl ","city":"St. John’s","country":"Canada","IATA":"YYT","ICAO":"CYYT","lat":"47.618598938","lon":"-52.7518997192","timezone":"-3.5"},{"name":"Kapuskasing ","city":"Kapuskasing","country":"Canada","IATA":"YYU","ICAO":"CYYU","lat":"49.41389846801758","lon":"-82.46749877929688","timezone":"-5"},{"name":"Armstrong ","city":"Armstrong","country":"Canada","IATA":"YYW","ICAO":"CYYW","lat":"50.29029846191406","lon":"-88.90969848632812","timezone":"-5"},{"name":"Mont Joli ","city":"Mont Joli","country":"Canada","IATA":"YYY","ICAO":"CYYY","lat":"48.60860061645508","lon":"-68.20809936523438","timezone":"-5"},{"name":"Lester B. Pearson Intl ","city":"Toronto","country":"Canada","IATA":"YYZ","ICAO":"CYYZ","lat":"43.6772003174","lon":"-79.63059997559999","timezone":"-5"},{"name":"Downsview ","city":"Toronto","country":"Canada","IATA":"YZD","ICAO":"CYZD","lat":"43.74250030517578","lon":"-79.4655990600586","timezone":"-5"},{"name":"Gore Bay Manitoulin ","city":"Gore Bay","country":"Canada","IATA":"YZE","ICAO":"CYZE","lat":"45.88529968261719","lon":"-82.56780242919922","timezone":"-5"},{"name":"Yellowknife ","city":"Yellowknife","country":"Canada","IATA":"YZF","ICAO":"CYZF","lat":"62.462799072265625","lon":"-114.44000244140625","timezone":"-7"},{"name":"Slave Lake ","city":"Slave Lake","country":"Canada","IATA":"YZH","ICAO":"CYZH","lat":"55.2930984497","lon":"-114.777000427","timezone":"-7"},{"name":"Sandspit ","city":"Sandspit","country":"Canada","IATA":"YZP","ICAO":"CYZP","lat":"53.25429916379999","lon":"-131.813995361","timezone":"-8"},{"name":"Chris Hadfield ","city":"Sarnia","country":"Canada","IATA":"YZR","ICAO":"CYZR","lat":"42.9994010925293","lon":"-82.30889892578125","timezone":"-5"},{"name":"Port Hardy ","city":"Port Hardy","country":"Canada","IATA":"YZT","ICAO":"CYZT","lat":"50.680599212646484","lon":"-127.36699676513672","timezone":"-8"},{"name":"Whitecourt ","city":"Whitecourt","country":"Canada","IATA":"YZU","ICAO":"CYZU","lat":"54.14390182495117","lon":"-115.78700256347656","timezone":"-7"},{"name":"Sept-Îles ","city":"Sept-iles","country":"Canada","IATA":"YZV","ICAO":"CYZV","lat":"50.22330093383789","lon":"-66.2656021118164","timezone":"-5"},{"name":"Teslin ","city":"Teslin","country":"Canada","IATA":"YZW","ICAO":"CYZW","lat":"60.17279815673828","lon":"-132.7429962158203","timezone":"-8"},{"name":"CFB Greenwood","city":"Greenwood","country":"Canada","IATA":"YZX","ICAO":"CYZX","lat":"44.98440170288086","lon":"-64.91690063476562","timezone":"-4"},{"name":"Faro ","city":"Faro","country":"Canada","IATA":"ZFA","ICAO":"CZFA","lat":"62.20750045776367","lon":"-133.37600708007812","timezone":"-8"},{"name":"Fort Mcpherson ","city":"Fort Mcpherson","country":"Canada","IATA":"ZFM","ICAO":"CZFM","lat":"67.40750122070312","lon":"-134.86099243164062","timezone":"-7"},{"name":"Mount Pleasant ","city":"Mount Pleasant","country":"Falkland Islands","IATA":"MPN","ICAO":"EGYP","lat":"-51.82279968261719","lon":"-58.447200775146484","timezone":"-3"},{"name":"Sir Seewoosagur Ramgoolam Intl ","city":"Plaisance","country":"Mauritius","IATA":"MRU","ICAO":"FIMP","lat":"-20.430201","lon":"57.683601","timezone":"4"},{"name":"Sir Charles Gaetan Duval ","city":"Rodriguez Island","country":"Mauritius","IATA":"RRG","ICAO":"FIMR","lat":"-19.7577","lon":"63.361","timezone":"4"},{"name":"Diego Garcia Naval Support Facility","city":"Diego Garcia Island","country":"British Indian Ocean Territory","IATA":"NKW","ICAO":"FJDG","lat":"-7.31327","lon":"72.411102","timezone":"6"},{"name":"Roland Garros ","city":"St.-denis","country":"Reunion","IATA":"RUN","ICAO":"FMEE","lat":"-20.887100219726562","lon":"55.51029968261719","timezone":"4"},{"name":"Pierrefonds ","city":"St.-pierre","country":"Reunion","IATA":"ZSE","ICAO":"FMEP","lat":"-21.320899963378906","lon":"55.42499923706055","timezone":"4"},{"name":"Desroches ","city":"Desroches","country":"Seychelles","IATA":"DES","ICAO":"FSDR","lat":"-5.6967","lon":"53.6558","timezone":"4"},{"name":"Seychelles Intl ","city":"Mahe","country":"Seychelles","IATA":"SEZ","ICAO":"FSIA","lat":"-4.67434","lon":"55.521801","timezone":"4"},{"name":"Praslin ","city":"Praslin","country":"Seychelles","IATA":"PRI","ICAO":"FSPP","lat":"-4.3192901611328125","lon":"55.69139862060547","timezone":"4"},{"name":"Amílcar Cabral Intl ","city":"Amilcar Cabral","country":"Cape Verde","IATA":"SID","ICAO":"GVAC","lat":"16.7414","lon":"-22.9494","timezone":"-1"},{"name":"Rabil ","city":"Boa Vista","country":"Cape Verde","IATA":"BVC","ICAO":"GVBA","lat":"16.136499404907227","lon":"-22.888900756835938","timezone":"-1"},{"name":"Maio ","city":"Maio","country":"Cape Verde","IATA":"MMO","ICAO":"GVMA","lat":"15.155900001525879","lon":"-23.213699340820312","timezone":"-1"},{"name":"Preguiça ","city":"Sao Nocolau Island","country":"Cape Verde","IATA":"SNE","ICAO":"GVSN","lat":"16.58839988708496","lon":"-24.284700393676758","timezone":"-1"},{"name":"São Pedro ","city":"Sao Vicente Island","country":"Cape Verde","IATA":"VXE","ICAO":"GVSV","lat":"16.833200454711914","lon":"-25.055299758911133","timezone":"-1"},{"name":"Miquelon ","city":"Miquelon","country":"Saint Pierre and Miquelon","IATA":"MQC","ICAO":"LFVM","lat":"47.095500946","lon":"-56.3802986145","timezone":"-3"},{"name":"St Pierre ","city":"St.-pierre","country":"Saint Pierre and Miquelon","IATA":"FSP","ICAO":"LFVP","lat":"46.762901306152344","lon":"-56.173099517822266","timezone":"-3"},{"name":"Santa Maria ","city":"Santa Maria (island)","country":"Portugal","IATA":"SMA","ICAO":"LPAZ","lat":"36.97140121459961","lon":"-25.17060089111328","timezone":"-1"},{"name":"Flores ","city":"Flores","country":"Portugal","IATA":"FLW","ICAO":"LPFL","lat":"39.455299377441406","lon":"-31.131399154663086","timezone":"-1"},{"name":"Graciosa ","city":"Graciosa Island","country":"Portugal","IATA":"GRW","ICAO":"LPGR","lat":"39.092201232910156","lon":"-28.029800415039062","timezone":"-1"},{"name":"Horta ","city":"Horta","country":"Portugal","IATA":"HOR","ICAO":"LPHR","lat":"38.519901275634766","lon":"-28.715900421142578","timezone":"-1"},{"name":"Lajes ","city":"Lajes (terceira Island)","country":"Portugal","IATA":"TER","ICAO":"LPLA","lat":"38.761799","lon":"-27.090799","timezone":"-1"},{"name":"João Paulo II ","city":"Ponta Delgada","country":"Portugal","IATA":"PDL","ICAO":"LPPD","lat":"37.7411994934","lon":"-25.6979007721","timezone":"-1"},{"name":"Pico ","city":"Pico","country":"Portugal","IATA":"PIX","ICAO":"LPPI","lat":"38.554298","lon":"-28.441299","timezone":"-1"},{"name":"São Jorge ","city":"Sao Jorge Island","country":"Portugal","IATA":"SJZ","ICAO":"LPSJ","lat":"38.66550064086914","lon":"-28.175800323486328","timezone":"-1"},{"name":"North Caicos ","city":"North Caicos","country":"Turks and Caicos Islands","IATA":"NCA","ICAO":"MBNC","lat":"21.9175","lon":"-71.939598","timezone":"-4"},{"name":"Providenciales ","city":"Providenciales","country":"Turks and Caicos Islands","IATA":"PLS","ICAO":"MBPV","lat":"21.77359962463379","lon":"-72.26589965820312","timezone":"-4"},{"name":"South Caicos ","city":"South Caicos","country":"Turks and Caicos Islands","IATA":"XSC","ICAO":"MBSC","lat":"21.515699386599998","lon":"-71.528503418","timezone":"-4"},{"name":"Maria Montez Intl ","city":"Barahona","country":"Dominican Republic","IATA":"BRX","ICAO":"MDBH","lat":"18.25149917602539","lon":"-71.12039947509766","timezone":"-4"},{"name":"Cabo Rojo ","city":"Cabo Rojo","country":"Dominican Republic","IATA":"CBJ","ICAO":"MDCR","lat":"17.929000854492188","lon":"-71.6447982788086","timezone":"-4"},{"name":"Casa De Campo Intl ","city":"La Romana","country":"Dominican Republic","IATA":"LRM","ICAO":"MDLR","lat":"18.450700759887695","lon":"-68.91179656982422","timezone":"-4"},{"name":"Punta Cana Intl ","city":"Punta Cana","country":"Dominican Republic","IATA":"PUJ","ICAO":"MDPC","lat":"18.567399978599997","lon":"-68.36340332030001","timezone":"-4"},{"name":"Gregorio Luperon Intl ","city":"Puerto Plata","country":"Dominican Republic","IATA":"POP","ICAO":"MDPP","lat":"19.75790023803711","lon":"-70.56999969482422","timezone":"-4"},{"name":"Las Américas Intl ","city":"Santo Domingo","country":"Dominican Republic","IATA":"SDQ","ICAO":"MDSD","lat":"18.42970085144","lon":"-69.668899536133","timezone":"-4"},{"name":"Cibao Intl ","city":"Santiago","country":"Dominican Republic","IATA":"STI","ICAO":"MDST","lat":"19.406099319458008","lon":"-70.60469818115234","timezone":"-4"},{"name":"Coban ","city":"Coban","country":"Guatemala","IATA":"CBV","ICAO":"MGCB","lat":"15.468999862670898","lon":"-90.40670013427734","timezone":"-6"},{"name":"La Aurora ","city":"Guatemala City","country":"Guatemala","IATA":"GUA","ICAO":"MGGT","lat":"14.5833","lon":"-90.527496","timezone":"-6"},{"name":"Retalhuleu ","city":"Retalhuleu","country":"Guatemala","IATA":"RER","ICAO":"MGRT","lat":"14.520999908447266","lon":"-91.69730377197266","timezone":"-6"},{"name":"San José ","city":"San Jose","country":"Guatemala","IATA":"GSJ","ICAO":"MGSJ","lat":"13.936200141899999","lon":"-90.83580017090001","timezone":"-6"},{"name":"Goloson Intl ","city":"La Ceiba","country":"Honduras","IATA":"LCE","ICAO":"MHLC","lat":"15.7425","lon":"-86.852997","timezone":"-6"},{"name":"Ramón Villeda Morales Intl ","city":"San Pedro Sula","country":"Honduras","IATA":"SAP","ICAO":"MHLM","lat":"15.4526","lon":"-87.923599","timezone":"-6"},{"name":"La Laguna ","city":"Guanaja","country":"Honduras","IATA":"GJA","ICAO":"MHNJ","lat":"16.4454","lon":"-85.906601","timezone":"-6"},{"name":"Juan Manuel Galvez Intl ","city":"Roatan","country":"Honduras","IATA":"RTB","ICAO":"MHRO","lat":"16.316799","lon":"-86.523003","timezone":"-6"},{"name":"Tela ","city":"Tela","country":"Honduras","IATA":"TEA","ICAO":"MHTE","lat":"15.7759","lon":"-87.4758","timezone":"-6"},{"name":"Toncontín Intl ","city":"Tegucigalpa","country":"Honduras","IATA":"TGU","ICAO":"MHTG","lat":"14.06089973449707","lon":"-87.21720123291016","timezone":"-6"},{"name":"Trujillo ","city":"Trujillo","country":"Honduras","IATA":"TJI","ICAO":"MHTJ","lat":"15.9268","lon":"-85.938202","timezone":"-6"},{"name":"Boscobel Aerodrome","city":"Ocho Rios","country":"Jamaica","IATA":"OCJ","ICAO":"MKBS","lat":"18.404199600219727","lon":"-76.96900177001953","timezone":"-5"},{"name":"Norman Manley Intl ","city":"Kingston","country":"Jamaica","IATA":"KIN","ICAO":"MKJP","lat":"17.935699462890625","lon":"-76.7874984741211","timezone":"-5"},{"name":"Sangster Intl ","city":"Montego Bay","country":"Jamaica","IATA":"MBJ","ICAO":"MKJS","lat":"18.503700256347656","lon":"-77.91339874267578","timezone":"-5"},{"name":"Ken Jones ","city":"Port Antonio","country":"Jamaica","IATA":"POT","ICAO":"MKKJ","lat":"18.1987991333","lon":"-76.53450012210001","timezone":"-5"},{"name":"Tinson Pen ","city":"Kingston","country":"Jamaica","IATA":"KTP","ICAO":"MKTP","lat":"17.98859977722168","lon":"-76.82379913330078","timezone":"-5"},{"name":"General Juan N Alvarez Intl ","city":"Acapulco","country":"Mexico","IATA":"ACA","ICAO":"MMAA","lat":"16.757099151611328","lon":"-99.75399780273438","timezone":"-6"},{"name":"Del Norte Intl ","city":"Monterrey","country":"Mexico","IATA":"NTR","ICAO":"MMAN","lat":"25.865601","lon":"-100.237","timezone":"-6"},{"name":"Jesús Terán Paredo Intl ","city":"Aguascalientes","country":"Mexico","IATA":"AGU","ICAO":"MMAS","lat":"21.705601","lon":"-102.318001","timezone":"-6"},{"name":"Bahías de Huatulco Intl ","city":"Huatulco","country":"Mexico","IATA":"HUX","ICAO":"MMBT","lat":"15.7753","lon":"-96.262604","timezone":"-6"},{"name":"General Mariano Matamoros ","city":"Cuernavaca","country":"Mexico","IATA":"CVJ","ICAO":"MMCB","lat":"18.834800720214844","lon":"-99.26129913330078","timezone":"-6"},{"name":"Ciudad Acuña New Intl ","city":"Ciudad Acuna","country":"Mexico","IATA":"ACN","ICAO":"MMCC","lat":"29.332899","lon":"-101.098998","timezone":"-6"},{"name":"Ciudad del Carmen Intl ","city":"Ciudad Del Carmen","country":"Mexico","IATA":"CME","ICAO":"MMCE","lat":"18.65369987487793","lon":"-91.79900360107422","timezone":"-6"},{"name":"Nuevo Casas Grandes ","city":"Nuevo Casas Grandes","country":"Mexico","IATA":"NCG","ICAO":"MMCG","lat":"30.3974","lon":"-107.875","timezone":"-7"},{"name":"Bachigualato Federal Intl ","city":"Culiacan","country":"Mexico","IATA":"CUL","ICAO":"MMCL","lat":"24.7644996643","lon":"-107.474998474","timezone":"-7"},{"name":"Chetumal Intl ","city":"Chetumal","country":"Mexico","IATA":"CTM","ICAO":"MMCM","lat":"18.50469970703125","lon":"-88.32679748535156","timezone":"-5"},{"name":"Ciudad Obregón Intl ","city":"Ciudad Obregon","country":"Mexico","IATA":"CEN","ICAO":"MMCN","lat":"27.39259910583496","lon":"-109.83300018310547","timezone":"-7"},{"name":"Ingeniero Alberto Acuña Ongay Intl ","city":"Campeche","country":"Mexico","IATA":"CPE","ICAO":"MMCP","lat":"19.816799163800003","lon":"-90.5002975464","timezone":"-6"},{"name":"Abraham González Intl ","city":"Ciudad Juarez","country":"Mexico","IATA":"CJS","ICAO":"MMCS","lat":"31.63610076904297","lon":"-106.42900085449219","timezone":"-7"},{"name":"General Roberto Fierro Villalobos Intl ","city":"Chihuahua","country":"Mexico","IATA":"CUU","ICAO":"MMCU","lat":"28.702899932900003","lon":"-105.964996338","timezone":"-7"},{"name":"General Pedro Jose Mendez Intl ","city":"Ciudad Victoria","country":"Mexico","IATA":"CVM","ICAO":"MMCV","lat":"23.7033004761","lon":"-98.9564971924","timezone":"-6"},{"name":"Cozumel Intl ","city":"Cozumel","country":"Mexico","IATA":"CZM","ICAO":"MMCZ","lat":"20.52239990234375","lon":"-86.92559814453125","timezone":"-5"},{"name":"General Guadalupe Victoria Intl ","city":"Durango","country":"Mexico","IATA":"DGO","ICAO":"MMDO","lat":"24.1242008209","lon":"-104.527999878","timezone":"-6"},{"name":"Amado Nervo National ","city":"Tepic","country":"Mexico","IATA":"TPQ","ICAO":"MMEP","lat":"21.4195","lon":"-104.843002","timezone":"-7"},{"name":"Ensenada Intl ","city":"Ensenada","country":"Mexico","IATA":"ESE","ICAO":"MMES","lat":"31.7953","lon":"-116.602997","timezone":"-8"},{"name":"Don Miguel Hidalgo Y Costilla Intl ","city":"Guadalajara","country":"Mexico","IATA":"GDL","ICAO":"MMGL","lat":"20.521799087524414","lon":"-103.31099700927734","timezone":"-6"},{"name":"General José María Yáñez Intl ","city":"Guaymas","country":"Mexico","IATA":"GYM","ICAO":"MMGM","lat":"27.9689998626709","lon":"-110.92500305175781","timezone":"-7"},{"name":"Tehuacan ","city":"Tehuacan","country":"Mexico","IATA":"TCN","ICAO":"MMHC","lat":"18.49720001220703","lon":"-97.4198989868164","timezone":"-6"},{"name":"General Ignacio P. Garcia Intl ","city":"Hermosillo","country":"Mexico","IATA":"HMO","ICAO":"MMHO","lat":"29.095899581900003","lon":"-111.047996521","timezone":"-7"},{"name":"Licenciado Miguel de la Madrid ","city":"Colima","country":"Mexico","IATA":"CLQ","ICAO":"MMIA","lat":"19.277","lon":"-103.577002","timezone":"-6"},{"name":"Isla Mujeres ","city":"Isla Mujeres","country":"Mexico","IATA":"ISJ","ICAO":"MMIM","lat":"21.2450008392334","lon":"-86.73999786376953","timezone":"-5"},{"name":"Plan De Guadalupe Intl ","city":"Saltillo","country":"Mexico","IATA":"SLW","ICAO":"MMIO","lat":"25.54949951171875","lon":"-100.92900085449219","timezone":"-6"},{"name":"Ixtepec ","city":"Iztepec","country":"Mexico","IATA":"IZT","ICAO":"MMIT","lat":"16.449301","lon":"-95.093697","timezone":"-6"},{"name":"Lázaro Cárdenas ","city":"Lazard Cardenas","country":"Mexico","IATA":"LZC","ICAO":"MMLC","lat":"18.0016994476","lon":"-102.221000671","timezone":"-6"},{"name":"Valle del Fuerte Intl ","city":"Los Mochis","country":"Mexico","IATA":"LMM","ICAO":"MMLM","lat":"25.6851997375","lon":"-109.081001282","timezone":"-7"},{"name":"Del Bajío Intl ","city":"Del Bajio","country":"Mexico","IATA":"BJX","ICAO":"MMLO","lat":"20.9935","lon":"-101.481003","timezone":"-6"},{"name":"Manuel Márquez de León Intl ","city":"La Paz","country":"Mexico","IATA":"LAP","ICAO":"MMLP","lat":"24.072700500499998","lon":"-110.361999512","timezone":"-7"},{"name":"Loreto Intl ","city":"Loreto","country":"Mexico","IATA":"LTO","ICAO":"MMLT","lat":"25.989200592041016","lon":"-111.3479995727539","timezone":"-7"},{"name":"General Servando Canales Intl ","city":"Matamoros","country":"Mexico","IATA":"MAM","ICAO":"MMMA","lat":"25.7698993683","lon":"-97.5252990723","timezone":"-6"},{"name":"Licenciado Manuel Crescencio Rejon Int ","city":"Merida","country":"Mexico","IATA":"MID","ICAO":"MMMD","lat":"20.937000274699997","lon":"-89.657699585","timezone":"-6"},{"name":"General Rodolfo Sánchez Taboada Intl ","city":"Mexicali","country":"Mexico","IATA":"MXL","ICAO":"MMML","lat":"32.6306","lon":"-115.241997","timezone":"-8"},{"name":"General Francisco J. Mujica Intl ","city":"Morelia","country":"Mexico","IATA":"MLM","ICAO":"MMMM","lat":"19.849899292","lon":"-101.025001526","timezone":"-6"},{"name":"Minatitlán/Coatzacoalcos National ","city":"Minatitlan","country":"Mexico","IATA":"MTT","ICAO":"MMMT","lat":"18.1033992767","lon":"-94.58070373540001","timezone":"-6"},{"name":"Monclova Intl ","city":"Monclova","country":"Mexico","IATA":"LOV","ICAO":"MMMV","lat":"26.9557","lon":"-101.470001","timezone":"-6"},{"name":"Licenciado Benito Juarez Intl ","city":"Mexico Ciudad","country":"Mexico","IATA":"MEX","ICAO":"MMMX","lat":"19.4363","lon":"-99.072098","timezone":"-6"},{"name":"General Mariano Escobedo Intl ","city":"Monterrey","country":"Mexico","IATA":"MTY","ICAO":"MMMY","lat":"25.7784996033","lon":"-100.107002258","timezone":"-6"},{"name":"General Rafael Buelna Intl ","city":"Mazatlan","country":"Mexico","IATA":"MZT","ICAO":"MMMZ","lat":"23.1613998413","lon":"-106.26599884","timezone":"-7"},{"name":"Nogales Intl ","city":"Nogales","country":"Mexico","IATA":"NOG","ICAO":"MMNG","lat":"31.22610092163086","lon":"-110.97599792480469","timezone":"-7"},{"name":"Quetzalcóatl Intl ","city":"Nuevo Laredo","country":"Mexico","IATA":"NLD","ICAO":"MMNL","lat":"27.4438991547","lon":"-99.5705032349","timezone":"-6"},{"name":"Xoxocotlán Intl ","city":"Oaxaca","country":"Mexico","IATA":"OAX","ICAO":"MMOX","lat":"16.9999008179","lon":"-96.726600647","timezone":"-6"},{"name":"El Tajín National ","city":"Poza Rico","country":"Mexico","IATA":"PAZ","ICAO":"MMPA","lat":"20.6026992798","lon":"-97.46080017090001","timezone":"-6"},{"name":"Hermanos Serdán Intl ","city":"Puebla","country":"Mexico","IATA":"PBC","ICAO":"MMPB","lat":"19.1581001282","lon":"-98.3713989258","timezone":"-6"},{"name":"Mar de Cortés Intl ","city":"Punta Penasco","country":"Mexico","IATA":"PPE","ICAO":"MMPE","lat":"31.351987","lon":"-113.305177","timezone":"-7"},{"name":"Piedras Negras Intl ","city":"Piedras Negras","country":"Mexico","IATA":"PDS","ICAO":"MMPG","lat":"28.627399","lon":"-100.535004","timezone":"-6"},{"name":"Licenciado y General Ignacio Lopez Rayon ","city":"Uruapan","country":"Mexico","IATA":"UPN","ICAO":"MMPN","lat":"19.396699905395508","lon":"-102.03900146484375","timezone":"-6"},{"name":"Licenciado Gustavo Díaz Ordaz Intl ","city":"Puerto Vallarta","country":"Mexico","IATA":"PVR","ICAO":"MMPR","lat":"20.680099487304688","lon":"-105.25399780273438","timezone":"-6"},{"name":"Puerto Escondido Intl ","city":"Puerto Escondido","country":"Mexico","IATA":"PXM","ICAO":"MMPS","lat":"15.8769","lon":"-97.089103","timezone":"-6"},{"name":"Querétaro Intercontinental ","city":"Queretaro","country":"Mexico","IATA":"QRO","ICAO":"MMQT","lat":"20.6173","lon":"-100.185997","timezone":"-6"},{"name":"General Lucio Blanco Intl ","city":"Reynosa","country":"Mexico","IATA":"REX","ICAO":"MMRX","lat":"26.0089","lon":"-98.2285","timezone":"-6"},{"name":"Los Cabos Intl ","city":"San Jose Del Cabo","country":"Mexico","IATA":"SJD","ICAO":"MMSD","lat":"23.15180015563965","lon":"-109.72100067138672","timezone":"-7"},{"name":"San Felipe Intl ","city":"San Filipe","country":"Mexico","IATA":"SFH","ICAO":"MMSF","lat":"30.930200576782","lon":"-114.80899810791","timezone":"-8"},{"name":"Ponciano Arriaga Intl ","city":"San Luis Potosi","country":"Mexico","IATA":"SLP","ICAO":"MMSP","lat":"22.254299163800003","lon":"-100.930999756","timezone":"-6"},{"name":"Francisco Sarabia Intl ","city":"Torreon","country":"Mexico","IATA":"TRC","ICAO":"MMTC","lat":"25.568300247199996","lon":"-103.411003113","timezone":"-6"},{"name":"Angel Albino Corzo Intl ","city":"Tuxtla Gutierrez","country":"Mexico","IATA":"TGZ","ICAO":"MMTG","lat":"16.5636005402","lon":"-93.02249908450001","timezone":"-6"},{"name":"General Abelardo L. Rodríguez Intl ","city":"Tijuana","country":"Mexico","IATA":"TIJ","ICAO":"MMTJ","lat":"32.541099548339844","lon":"-116.97000122070312","timezone":"-8"},{"name":"General Francisco Javier Mina Intl ","city":"Tampico","country":"Mexico","IATA":"TAM","ICAO":"MMTM","lat":"22.2964000702","lon":"-97.8658981323","timezone":"-6"},{"name":"Tamuin ","city":"Tamuin","country":"Mexico","IATA":"TSL","ICAO":"MMTN","lat":"22.0383","lon":"-98.806502","timezone":"-6"},{"name":"Licenciado Adolfo Lopez Mateos Intl ","city":"Toluca","country":"Mexico","IATA":"TLC","ICAO":"MMTO","lat":"19.3370990753","lon":"-99.56600189210002","timezone":"-6"},{"name":"Tapachula Intl ","city":"Tapachula","country":"Mexico","IATA":"TAP","ICAO":"MMTP","lat":"14.7943000793","lon":"-92.3700027466","timezone":"-6"},{"name":"Cancún Intl ","city":"Cancun","country":"Mexico","IATA":"CUN","ICAO":"MMUN","lat":"21.036500930800003","lon":"-86.8770980835","timezone":"-5"},{"name":"Carlos Rovirosa Pérez Intl ","city":"Villahermosa","country":"Mexico","IATA":"VSA","ICAO":"MMVA","lat":"17.996999740600586","lon":"-92.81739807128906","timezone":"-6"},{"name":"General Heriberto Jara Intl ","city":"Vera Cruz","country":"Mexico","IATA":"VER","ICAO":"MMVR","lat":"19.1459007263","lon":"-96.1873016357","timezone":"-6"},{"name":"General Leobardo C. Ruiz Intl ","city":"Zacatecas","country":"Mexico","IATA":"ZCL","ICAO":"MMZC","lat":"22.8971004486","lon":"-102.68699646","timezone":"-6"},{"name":"Ixtapa Zihuatanejo Intl ","city":"Zihuatanejo","country":"Mexico","IATA":"ZIH","ICAO":"MMZH","lat":"17.601600647","lon":"-101.460998535","timezone":"-6"},{"name":"Zamora ","city":"Zamora","country":"Mexico","IATA":"ZMM","ICAO":"MMZM","lat":"20.045","lon":"-102.276001","timezone":"-6"},{"name":"Playa De Oro Intl ","city":"Manzanillo","country":"Mexico","IATA":"ZLO","ICAO":"MMZO","lat":"19.144800186199998","lon":"-104.558998108","timezone":"-6"},{"name":"Bluefields ","city":"Bluefields","country":"Nicaragua","IATA":"BEF","ICAO":"MNBL","lat":"11.991000175476074","lon":"-83.77410125732422","timezone":"-6"},{"name":"Augusto C. Sandino (Managua) Intl ","city":"Managua","country":"Nicaragua","IATA":"MGA","ICAO":"MNMG","lat":"12.141500473022461","lon":"-86.16819763183594","timezone":"-6"},{"name":"Puerto Cabezas ","city":"Puerto Cabezas","country":"Nicaragua","IATA":"PUZ","ICAO":"MNPC","lat":"14.047200202941895","lon":"-83.38670349121094","timezone":"-6"},{"name":"Bocas Del Toro Intl ","city":"Bocas Del Toro","country":"Panama","IATA":"BOC","ICAO":"MPBO","lat":"9.340849876403809","lon":"-82.25080108642578","timezone":"-5"},{"name":"Cap Manuel Niño Intl ","city":"Changuinola","country":"Panama","IATA":"CHX","ICAO":"MPCH","lat":"9.458962","lon":"-82.515062","timezone":"-5"},{"name":"Enrique Malek Intl ","city":"David","country":"Panama","IATA":"DAV","ICAO":"MPDA","lat":"8.390999794006348","lon":"-82.43499755859375","timezone":"-5"},{"name":"Panama Pacific Intl ","city":"Howard","country":"Panama","IATA":"BLB","ICAO":"MPHO","lat":"8.91479","lon":"-79.599602","timezone":"-5"},{"name":"Marcos A. Gelabert Intl ","city":"Panama","country":"Panama","IATA":"PAC","ICAO":"MPMG","lat":"8.973340034484863","lon":"-79.55560302734375","timezone":"-5"},{"name":"Ruben Cantu ","city":"Santiago","country":"Panama","IATA":"SYP","ICAO":"MPSA","lat":"8.085599899291992","lon":"-80.94529724121094","timezone":"-5"},{"name":"Tocumen Intl ","city":"Panama City","country":"Panama","IATA":"PTY","ICAO":"MPTO","lat":"9.0713596344","lon":"-79.3834991455","timezone":"-5"},{"name":"Buenos Aires ","city":"Buenos Aires","country":"Costa Rica","IATA":"BAI","ICAO":"MRBA","lat":"9.163949","lon":"-83.330171","timezone":"-6"},{"name":"Coto 47 ","city":"Coto 47","country":"Costa Rica","IATA":"OTR","ICAO":"MRCC","lat":"8.60155963897705","lon":"-82.96859741210938","timezone":"-6"},{"name":"Chacarita ","city":"Chacarita","country":"Costa Rica","IATA":"JAP","ICAO":"MRCH","lat":"9.98141002655","lon":"-84.7726974487","timezone":"-6"},{"name":"Golfito ","city":"Golfito","country":"Costa Rica","IATA":"GLF","ICAO":"MRGF","lat":"8.654009819030762","lon":"-83.18219757080078","timezone":"-6"},{"name":"Guapiles ","city":"Guapiles","country":"Costa Rica","IATA":"GPL","ICAO":"MRGP","lat":"10.2172002792","lon":"-83.79699707030001","timezone":"-6"},{"name":"Daniel Oduber Quiros Intl ","city":"Liberia","country":"Costa Rica","IATA":"LIR","ICAO":"MRLB","lat":"10.5933","lon":"-85.544403","timezone":"-6"},{"name":"Los Chiles ","city":"Los Chiles","country":"Costa Rica","IATA":"LSL","ICAO":"MRLC","lat":"11.035300254821777","lon":"-84.70610046386719","timezone":"-6"},{"name":"Limon Intl ","city":"Limon","country":"Costa Rica","IATA":"LIO","ICAO":"MRLM","lat":"9.95796012878418","lon":"-83.02200317382812","timezone":"-6"},{"name":"Nosara ","city":"Nosara Beach","country":"Costa Rica","IATA":"NOB","ICAO":"MRNS","lat":"9.976490020750001","lon":"-85.65299987790002","timezone":"-6"},{"name":"Juan Santamaria Intl ","city":"San Jose","country":"Costa Rica","IATA":"SJO","ICAO":"MROC","lat":"9.993860244750977","lon":"-84.20880126953125","timezone":"-6"},{"name":"Palmar Sur ","city":"Palmar Sur","country":"Costa Rica","IATA":"PMZ","ICAO":"MRPM","lat":"8.951029777526855","lon":"-83.46859741210938","timezone":"-6"},{"name":"Quepos Managua ","city":"Quepos","country":"Costa Rica","IATA":"XQP","ICAO":"MRQP","lat":"9.443160057067871","lon":"-84.12979888916016","timezone":"-6"},{"name":"San Vito De Java ","city":"San Vito De Jaba","country":"Costa Rica","IATA":"TOO","ICAO":"MRSV","lat":"8.826109886169434","lon":"-82.95890045166016","timezone":"-6"},{"name":"Monseñor Óscar Arnulfo Romero Intl ","city":"San Salvador","country":"El Salvador","IATA":"SAL","ICAO":"MSLP","lat":"13.4409","lon":"-89.055702","timezone":"-6"},{"name":"Les Cayes ","city":"Cayes","country":"Haiti","IATA":"CYA","ICAO":"MTCA","lat":"18.271099090576172","lon":"-73.78829956054688","timezone":"-5"},{"name":"Cap Haitien Intl ","city":"Cap Haitien","country":"Haiti","IATA":"CAP","ICAO":"MTCH","lat":"19.733","lon":"-72.194702","timezone":"-5"},{"name":"Jacmel ","city":"Jacmel","country":"Haiti","IATA":"JAK","ICAO":"MTJA","lat":"18.241100311279297","lon":"-72.51850128173828","timezone":"-5"},{"name":"Toussaint Louverture Intl ","city":"Port-au-prince","country":"Haiti","IATA":"PAP","ICAO":"MTPP","lat":"18.579999923706055","lon":"-72.2925033569336","timezone":"-5"},{"name":"Gustavo Rizo ","city":"Baracoa Playa","country":"Cuba","IATA":"BCA","ICAO":"MUBA","lat":"20.365299224853516","lon":"-74.5062026977539","timezone":"-5"},{"name":"Carlos Manuel de Cespedes ","city":"Bayamo","country":"Cuba","IATA":"BYM","ICAO":"MUBY","lat":"20.396400451660156","lon":"-76.62139892578125","timezone":"-5"},{"name":"Maximo Gomez ","city":"Ciego De Avila","country":"Cuba","IATA":"AVI","ICAO":"MUCA","lat":"22.027099609375","lon":"-78.78959655761719","timezone":"-5"},{"name":"Jardines Del Rey ","city":"Cunagua","country":"Cuba","IATA":"CCC","ICAO":"MUCC","lat":"22.461000442499998","lon":"-78.32839965820001","timezone":"-5"},{"name":"Jaime Gonzalez ","city":"Cienfuegos","country":"Cuba","IATA":"CFG","ICAO":"MUCF","lat":"22.149999618530273","lon":"-80.41419982910156","timezone":"-5"},{"name":"Vilo Acuña Intl ","city":"Cayo Largo del Sur","country":"Cuba","IATA":"CYO","ICAO":"MUCL","lat":"21.6165008545","lon":"-81.5459976196","timezone":"-5"},{"name":"Ignacio Agramonte Intl ","city":"Camaguey","country":"Cuba","IATA":"CMW","ICAO":"MUCM","lat":"21.420299530029297","lon":"-77.84750366210938","timezone":"-5"},{"name":"Antonio Maceo Intl ","city":"Santiago De Cuba","country":"Cuba","IATA":"SCU","ICAO":"MUCU","lat":"19.96980094909668","lon":"-75.83540344238281","timezone":"-5"},{"name":"Leeward Point Field","city":"Guantanamo","country":"Cuba","IATA":"NBW","ICAO":"MUGM","lat":"19.906499862671","lon":"-75.207099914551","timezone":"-5"},{"name":"Mariana Grajales ","city":"Guantanamo","country":"Cuba","IATA":"GAO","ICAO":"MUGT","lat":"20.08530044555664","lon":"-75.1583023071289","timezone":"-5"},{"name":"José Martí Intl ","city":"Havana","country":"Cuba","IATA":"HAV","ICAO":"MUHA","lat":"22.989200592041016","lon":"-82.40910339355469","timezone":"-5"},{"name":"Frank Pais Intl ","city":"Holguin","country":"Cuba","IATA":"HOG","ICAO":"MUHG","lat":"20.785600662231445","lon":"-76.31510162353516","timezone":"-5"},{"name":"La Coloma ","city":"La Coloma","country":"Cuba","IATA":"LCL","ICAO":"MULM","lat":"22.33609962463379","lon":"-83.64189910888672","timezone":"-5"},{"name":"Orestes Acosta ","city":"Moa","country":"Cuba","IATA":"MOA","ICAO":"MUMO","lat":"20.653900146484375","lon":"-74.92220306396484","timezone":"-5"},{"name":"Sierra Maestra ","city":"Manzanillo","country":"Cuba","IATA":"MZO","ICAO":"MUMZ","lat":"20.28809928894043","lon":"-77.08920288085938","timezone":"-5"},{"name":"Rafael Cabrera ","city":"Nueva Gerona","country":"Cuba","IATA":"GER","ICAO":"MUNG","lat":"21.834699630737305","lon":"-82.78379821777344","timezone":"-5"},{"name":"Playa Baracoa ","city":"Baracoa Playa","country":"Cuba","IATA":"UPB","ICAO":"MUPB","lat":"23.032800674399997","lon":"-82.5793991089","timezone":"-5"},{"name":"Pinar Del Rio ","city":"Pinar Del Rio Norte","country":"Cuba","IATA":"QPD","ICAO":"MUPR","lat":"22.42140007019043","lon":"-83.67839813232422","timezone":"-5"},{"name":"Abel Santamaria ","city":"Santa Clara","country":"Cuba","IATA":"SNU","ICAO":"MUSC","lat":"22.49220085144043","lon":"-79.943603515625","timezone":"-5"},{"name":"Siguanea ","city":"Siguanea","country":"Cuba","IATA":"SZJ","ICAO":"MUSN","lat":"21.642499923706055","lon":"-82.9551010131836","timezone":"-5"},{"name":"Sancti Spiritus ","city":"Sancti Spiritus","country":"Cuba","IATA":"USS","ICAO":"MUSS","lat":"21.9704","lon":"-79.442703","timezone":"-5"},{"name":"Juan Gualberto Gomez Intl ","city":"Varadero","country":"Cuba","IATA":"VRA","ICAO":"MUVR","lat":"23.034400939941406","lon":"-81.435302734375","timezone":"-5"},{"name":"Hermanos Ameijeiras ","city":"Las Tunas","country":"Cuba","IATA":"VTU","ICAO":"MUVT","lat":"20.987600326538086","lon":"-76.93579864501953","timezone":"-5"},{"name":"Gerrard Smith Intl ","city":"Cayman Brac","country":"Cayman Islands","IATA":"CYB","ICAO":"MWCB","lat":"19.687000274658203","lon":"-79.88279724121094","timezone":"-5"},{"name":"Owen Roberts Intl ","city":"Georgetown","country":"Cayman Islands","IATA":"GCM","ICAO":"MWCR","lat":"19.292800903299998","lon":"-81.3576965332","timezone":"-5"},{"name":"Clarence A. Bain ","city":"Clarence Bain","country":"Bahamas","IATA":"MAY","ICAO":"MYAB","lat":"24.287700653076172","lon":"-77.68460083007812","timezone":"-5"},{"name":"Andros Town ","city":"Andros Town","country":"Bahamas","IATA":"ASD","ICAO":"MYAF","lat":"24.697900772094727","lon":"-77.79560089111328","timezone":"-5"},{"name":"Leonard M Thompson Intl ","city":"Marsh Harbor","country":"Bahamas","IATA":"MHH","ICAO":"MYAM","lat":"26.5114","lon":"-77.083503","timezone":"-5"},{"name":"San Andros ","city":"San Andros","country":"Bahamas","IATA":"SAQ","ICAO":"MYAN","lat":"25.053800582885742","lon":"-78.04900360107422","timezone":"-5"},{"name":"Spring Point ","city":"Spring Point","country":"Bahamas","IATA":"AXP","ICAO":"MYAP","lat":"22.441799163800003","lon":"-73.97090148930002","timezone":"-5"},{"name":"Treasure Cay ","city":"Treasure Cay","country":"Bahamas","IATA":"TCB","ICAO":"MYAT","lat":"26.745300293","lon":"-77.3912963867","timezone":"-5"},{"name":"Chub Cay ","city":"Chub Cay","country":"Bahamas","IATA":"CCZ","ICAO":"MYBC","lat":"25.41710090637207","lon":"-77.88089752197266","timezone":"-5"},{"name":"Great Harbour Cay ","city":"Bullocks Harbour","country":"Bahamas","IATA":"GHC","ICAO":"MYBG","lat":"25.7383","lon":"-77.840103","timezone":"-5"},{"name":"South Bimini ","city":"Alice Town","country":"Bahamas","IATA":"BIM","ICAO":"MYBS","lat":"25.6998996735","lon":"-79.2647018433","timezone":"-5"},{"name":"Exuma Intl ","city":"Great Exuma","country":"Bahamas","IATA":"GGT","ICAO":"MYEF","lat":"23.5625991821","lon":"-75.8779983521","timezone":"-5"},{"name":"North Eleuthera ","city":"North Eleuthera","country":"Bahamas","IATA":"ELH","ICAO":"MYEH","lat":"25.474899292","lon":"-76.6835021973","timezone":"-5"},{"name":"Governor’s Harbour ","city":"Governor’s Harbor","country":"Bahamas","IATA":"GHB","ICAO":"MYEM","lat":"25.2847003937","lon":"-76.3310012817","timezone":"-5"},{"name":"Normans Cay ","city":"Norman’s Cay","country":"Bahamas","IATA":"NMC","ICAO":"MYEN","lat":"24.59429931640625","lon":"-76.82019805908203","timezone":"-5"},{"name":"Rock Sound ","city":"Rock Sound","country":"Bahamas","IATA":"RSD","ICAO":"MYER","lat":"24.8950787333","lon":"-76.1768817902","timezone":"-5"},{"name":"Staniel Cay ","city":"Staniel Cay","country":"Bahamas","IATA":"TYM","ICAO":"MYES","lat":"24.169099807739258","lon":"-76.43910217285156","timezone":"-5"},{"name":"Grand Bahama Intl ","city":"Freeport","country":"Bahamas","IATA":"FPO","ICAO":"MYGF","lat":"26.5587005615","lon":"-78.695602417","timezone":"-5"},{"name":"Inagua ","city":"Matthew Town","country":"Bahamas","IATA":"IGA","ICAO":"MYIG","lat":"20.975000381469727","lon":"-73.66690063476562","timezone":"-5"},{"name":"Deadman’s Cay ","city":"Dead Man’s Cay","country":"Bahamas","IATA":"LGI","ICAO":"MYLD","lat":"23.1790008545","lon":"-75.09359741210001","timezone":"-5"},{"name":"Stella Maris ","city":"Stella Maris","country":"Bahamas","IATA":"SML","ICAO":"MYLS","lat":"23.582317","lon":"-75.268621","timezone":"-5"},{"name":"Mayaguana ","city":"Mayaguana","country":"Bahamas","IATA":"MYG","ICAO":"MYMM","lat":"22.379499","lon":"-73.013494","timezone":"-5"},{"name":"Lynden Pindling Intl ","city":"Nassau","country":"Bahamas","IATA":"NAS","ICAO":"MYNN","lat":"25.0389995575","lon":"-77.46620178219999","timezone":"-5"},{"name":"Duncan Town ","city":"Duncan Town","country":"Bahamas","IATA":"DCT","ICAO":"MYRD","lat":"22.181800842285156","lon":"-75.72949981689453","timezone":"-5"},{"name":"Rum Cay ","city":"Port Nelson","country":"Bahamas","IATA":"RCY","ICAO":"MYRP","lat":"23.68440055847168","lon":"-74.83619689941406","timezone":"-5"},{"name":"San Salvador ","city":"Cockburn Town","country":"Bahamas","IATA":"ZSA","ICAO":"MYSM","lat":"24.06329917907715","lon":"-74.52400207519531","timezone":"-5"},{"name":"Philip S. W. Goldson Intl ","city":"Belize City","country":"Belize","IATA":"BZE","ICAO":"MZBZ","lat":"17.539100646972656","lon":"-88.30819702148438","timezone":"-6"},{"name":"Fua’amotu Intl ","city":"Tongatapu","country":"Tonga","IATA":"TBU","ICAO":"NFTF","lat":"-21.241199493408203","lon":"-175.14999389648438","timezone":"13"},{"name":"Vava’u Intl ","city":"Vava’u","country":"Tonga","IATA":"VAV","ICAO":"NFTV","lat":"-18.58530044555664","lon":"-173.96200561523438","timezone":"13"},{"name":"Faleolo Intl ","city":"Faleolo","country":"Samoa","IATA":"APW","ICAO":"NSFA","lat":"-13.829999923706055","lon":"-172.00799560546875","timezone":"13"},{"name":"Pago Pago Intl ","city":"Pago Pago","country":"American Samoa","IATA":"PPG","ICAO":"NSTU","lat":"-14.3310003281","lon":"-170.710006714","timezone":"-11"},{"name":"Totegegie ","city":"Totegegie","country":"French Polynesia","IATA":"GMR","ICAO":"NTGJ","lat":"-23.07990074157715","lon":"-134.88999938964844","timezone":"-9"},{"name":"Nuku Hiva ","city":"Nuku Hiva","country":"French Polynesia","IATA":"NHV","ICAO":"NTMD","lat":"-8.795599937438965","lon":"-140.22900390625","timezone":"-9.5"},{"name":"Bauerfield Intl ","city":"Port-vila","country":"Vanuatu","IATA":"VLI","ICAO":"NVVV","lat":"-17.699300765991","lon":"168.32000732422","timezone":"11"},{"name":"Koné ","city":"Kone","country":"New Caledonia","IATA":"KNQ","ICAO":"NWWD","lat":"-21.05430030822754","lon":"164.83700561523438","timezone":"11"},{"name":"Koumac ","city":"Koumac","country":"New Caledonia","IATA":"KOC","ICAO":"NWWK","lat":"-20.546300888061523","lon":"164.25599670410156","timezone":"11"},{"name":"Lifou ","city":"Lifou","country":"New Caledonia","IATA":"LIF","ICAO":"NWWL","lat":"-20.774799346923828","lon":"167.24000549316406","timezone":"11"},{"name":"Nouméa Magenta ","city":"Noumea","country":"New Caledonia","IATA":"GEA","ICAO":"NWWM","lat":"-22.25830078125","lon":"166.47300720214844","timezone":"11"},{"name":"Maré ","city":"Mare","country":"New Caledonia","IATA":"MEE","ICAO":"NWWR","lat":"-21.481700897216797","lon":"168.03799438476562","timezone":"11"},{"name":"Touho ","city":"Touho","country":"New Caledonia","IATA":"TOU","ICAO":"NWWU","lat":"-20.790000915527344","lon":"165.25900268554688","timezone":"11"},{"name":"Ouvéa ","city":"Ouvea","country":"New Caledonia","IATA":"UVE","ICAO":"NWWV","lat":"-20.640600204467773","lon":"166.572998046875","timezone":"11"},{"name":"La Tontouta Intl ","city":"Noumea","country":"New Caledonia","IATA":"NOU","ICAO":"NWWW","lat":"-22.01460075378418","lon":"166.21299743652344","timezone":"11"},{"name":"Chatham Islands-Tuuta ","city":"Chatham Island","country":"New Zealand","IATA":"CHT","ICAO":"NZCI","lat":"-43.810001373291016","lon":"-176.45700073242188","timezone":"12.75"},{"name":"Herat ","city":"Herat","country":"Afghanistan","IATA":"HEA","ICAO":"OAHR","lat":"34.209999084472656","lon":"62.22829818725586","timezone":"4.5"},{"name":"Jalalabad ","city":"Jalalabad","country":"Afghanistan","IATA":"JAA","ICAO":"OAJL","lat":"34.39979934692383","lon":"70.49859619140625","timezone":"4.5"},{"name":"Hamid Karzai Intl ","city":"Kabul","country":"Afghanistan","IATA":"KBL","ICAO":"OAKB","lat":"34.565899","lon":"69.212303","timezone":"4.5"},{"name":"Kandahar ","city":"Kandahar","country":"Afghanistan","IATA":"KDH","ICAO":"OAKN","lat":"31.505800247192383","lon":"65.8478012084961","timezone":"4.5"},{"name":"Maimana ","city":"Maimama","country":"Afghanistan","IATA":"MMZ","ICAO":"OAMN","lat":"35.93080139160156","lon":"64.76090240478516","timezone":"4.5"},{"name":"Mazar I Sharif ","city":"Mazar-i-sharif","country":"Afghanistan","IATA":"MZR","ICAO":"OAMS","lat":"36.70690155029297","lon":"67.20970153808594","timezone":"4.5"},{"name":"Shindand ","city":"Shindand","country":"Afghanistan","IATA":"OAH","ICAO":"OASD","lat":"33.3913002014","lon":"62.2610015869","timezone":"4.5"},{"name":"Konduz ","city":"Kunduz","country":"Afghanistan","IATA":"UND","ICAO":"OAUZ","lat":"36.66510009765625","lon":"68.91079711914062","timezone":"4.5"},{"name":"Abadan ","city":"Abadan","country":"Iran","IATA":"ABD","ICAO":"OIAA","lat":"30.371099472","lon":"48.2282981873","timezone":"3.5"},{"name":"Dezful ","city":"Dezful","country":"Iran","IATA":"DEF","ICAO":"OIAD","lat":"32.434399","lon":"48.397598","timezone":"3.5"},{"name":"Aghajari ","city":"Aghajari","country":"Iran","IATA":"AKW","ICAO":"OIAG","lat":"30.7444","lon":"49.6772","timezone":"3.5"},{"name":"Gachsaran ","city":"Gachsaran","country":"Iran","IATA":"GCH","ICAO":"OIAH","lat":"30.337600708","lon":"50.827999115","timezone":"3.5"},{"name":"Omidiyeh ","city":"Omidyeh","country":"Iran","IATA":"OMI","ICAO":"OIAJ","lat":"30.8351993560791","lon":"49.5349006652832","timezone":"3.5"},{"name":"Mahshahr ","city":"Bandar Mahshahr","country":"Iran","IATA":"MRX","ICAO":"OIAM","lat":"30.55620002746582","lon":"49.15190124511719","timezone":"3.5"},{"name":"Ahwaz ","city":"Ahwaz","country":"Iran","IATA":"AWZ","ICAO":"OIAW","lat":"31.337400436399996","lon":"48.7620010376","timezone":"3.5"},{"name":"Abu Musa Island ","city":"Abumusa I.","country":"Iran","IATA":"AEU","ICAO":"OIBA","lat":"25.8757","lon":"55.033001","timezone":"3.5"},{"name":"Bushehr ","city":"Bushehr","country":"Iran","IATA":"BUZ","ICAO":"OIBB","lat":"28.9447994232","lon":"50.8345985413","timezone":"3.5"},{"name":"Kish Intl ","city":"Kish Island","country":"Iran","IATA":"KIH","ICAO":"OIBK","lat":"26.5261993408","lon":"53.980201721200004","timezone":"3.5"},{"name":"Bandar Lengeh ","city":"Bandar Lengeh","country":"Iran","IATA":"BDH","ICAO":"OIBL","lat":"26.531999588","lon":"54.824798584","timezone":"3.5"},{"name":"Khark Island ","city":"Khark Island","country":"Iran","IATA":"KHK","ICAO":"OIBQ","lat":"29.260299682617188","lon":"50.32389831542969","timezone":"3.5"},{"name":"Sirri Island ","city":"Siri Island","country":"Iran","IATA":"SXI","ICAO":"OIBS","lat":"25.908899307250977","lon":"54.539398193359375","timezone":"3.5"},{"name":"Lavan Island ","city":"Lavan Island","country":"Iran","IATA":"LVP","ICAO":"OIBV","lat":"26.810300827026367","lon":"53.356300354003906","timezone":"3.5"},{"name":"Shahid Ashrafi Esfahani ","city":"Bakhtaran","country":"Iran","IATA":"KSH","ICAO":"OICC","lat":"34.3459014893","lon":"47.1581001282","timezone":"3.5"},{"name":"Sanandaj ","city":"Sanandaj","country":"Iran","IATA":"SDG","ICAO":"OICS","lat":"35.24589920043945","lon":"47.00920104980469","timezone":"3.5"},{"name":"Hesa ","city":"Daran","country":"Iran","IATA":"IFH","ICAO":"OIFE","lat":"32.92890167236328","lon":"51.561100006103516","timezone":"3.5"},{"name":"Kashan ","city":"Kashan","country":"Iran","IATA":"KKS","ICAO":"OIFK","lat":"33.895302","lon":"51.577","timezone":"3.5"},{"name":"Esfahan Shahid Beheshti Intl ","city":"Esfahan","country":"Iran","IATA":"IFN","ICAO":"OIFM","lat":"32.75080108642578","lon":"51.86130142211914","timezone":"3.5"},{"name":"Sardar-e-Jangal ","city":"Rasht","country":"Iran","IATA":"RAS","ICAO":"OIGG","lat":"37.323333","lon":"49.617778","timezone":"3.5"},{"name":"Arak ","city":"Arak","country":"Iran","IATA":"AJK","ICAO":"OIHR","lat":"34.138099670410156","lon":"49.8473014831543","timezone":"3.5"},{"name":"Mehrabad Intl ","city":"Teheran","country":"Iran","IATA":"THR","ICAO":"OIII","lat":"35.68920135498047","lon":"51.31340026855469","timezone":"3.5"},{"name":"Qazvin ","city":"Ghazvin","country":"Iran","IATA":"GZW","ICAO":"OIIK","lat":"36.240101","lon":"50.0471","timezone":"3.5"},{"name":"Bandar Abbas Intl ","city":"Bandar Abbas","country":"Iran","IATA":"BND","ICAO":"OIKB","lat":"27.218299865722656","lon":"56.37779998779297","timezone":"3.5"},{"name":"Jiroft ","city":"Jiroft","country":"Iran","IATA":"JYR","ICAO":"OIKJ","lat":"28.726900100699996","lon":"57.67029953","timezone":"3.5"},{"name":"Kerman ","city":"Kerman","country":"Iran","IATA":"KER","ICAO":"OIKK","lat":"30.274400711099997","lon":"56.9510993958","timezone":"3.5"},{"name":"Havadarya ","city":"Bandar Abbas","country":"Iran","IATA":"HDR","ICAO":"OIKP","lat":"27.158300399780273","lon":"56.17250061035156","timezone":"3.5"},{"name":"Sirjan ","city":"Sirjan","country":"Iran","IATA":"SYJ","ICAO":"OIKY","lat":"29.550899505615234","lon":"55.672698974609375","timezone":"3.5"},{"name":"Birjand ","city":"Birjand","country":"Iran","IATA":"XBJ","ICAO":"OIMB","lat":"32.898101806640625","lon":"59.2661018371582","timezone":"3.5"},{"name":"Sarakhs ","city":"Sarakhs","country":"Iran","IATA":"CKT","ICAO":"OIMC","lat":"36.50120162963867","lon":"61.06489944458008","timezone":"3.5"},{"name":"Shahroud ","city":"Emam Shahr","country":"Iran","IATA":"RUD","ICAO":"OIMJ","lat":"36.4253005981","lon":"55.104198455799995","timezone":"3.5"},{"name":"Tabas ","city":"Tabas","country":"Iran","IATA":"TCX","ICAO":"OIMT","lat":"33.6678009033","lon":"56.8927001953","timezone":"3.5"},{"name":"Kalaleh ","city":"Kalaleh","country":"Iran","IATA":"KLM","ICAO":"OINE","lat":"37.3833007812","lon":"55.4519996643","timezone":"3.5"},{"name":"Ramsar ","city":"Ramsar","country":"Iran","IATA":"RZR","ICAO":"OINR","lat":"36.9099006652832","lon":"50.67959976196289","timezone":"3.5"},{"name":"Fasa ","city":"Fasa","country":"Iran","IATA":"FAZ","ICAO":"OISF","lat":"28.891799926757812","lon":"53.72330093383789","timezone":"3.5"},{"name":"Jahrom ","city":"Jahrom","country":"Iran","IATA":"JAR","ICAO":"OISJ","lat":"28.586700439499996","lon":"53.5791015625","timezone":"3.5"},{"name":"Lamerd ","city":"Lamerd","country":"Iran","IATA":"LFM","ICAO":"OISR","lat":"27.3726997375","lon":"53.18880081179999","timezone":"3.5"},{"name":"Shiraz Shahid Dastghaib Intl ","city":"Shiraz","country":"Iran","IATA":"SYZ","ICAO":"OISS","lat":"29.539199829101562","lon":"52.58980178833008","timezone":"3.5"},{"name":"Khoy ","city":"Khoy","country":"Iran","IATA":"KHY","ICAO":"OITK","lat":"38.4275016784668","lon":"44.97359848022461","timezone":"3.5"},{"name":"Tabriz Intl ","city":"Tabriz","country":"Iran","IATA":"TBZ","ICAO":"OITT","lat":"38.1338996887207","lon":"46.23500061035156","timezone":"3.5"},{"name":"Zanjan ","city":"Zanjan","country":"Iran","IATA":"JWN","ICAO":"OITZ","lat":"36.7737007141","lon":"48.3594017029","timezone":"3.5"},{"name":"Shahid Sadooghi ","city":"Yazd","country":"Iran","IATA":"AZD","ICAO":"OIYY","lat":"31.9048995972","lon":"54.2765007019","timezone":"3.5"},{"name":"Zabol ","city":"Zabol","country":"Iran","IATA":"ACZ","ICAO":"OIZB","lat":"31.09830093383789","lon":"61.54389953613281","timezone":"3.5"},{"name":"Konarak ","city":"Chah Bahar","country":"Iran","IATA":"ZBR","ICAO":"OIZC","lat":"25.443300247199996","lon":"60.3820991516","timezone":"3.5"},{"name":"Zahedan Intl ","city":"Zahedan","country":"Iran","IATA":"ZAH","ICAO":"OIZH","lat":"29.47570037841797","lon":"60.90620040893555","timezone":"3.5"},{"name":"Iran Shahr ","city":"Iran Shahr","country":"Iran","IATA":"IHR","ICAO":"OIZI","lat":"27.2360992432","lon":"60.7200012207","timezone":"3.5"},{"name":"Abu Dhabi Intl ","city":"Abu Dhabi","country":"United Arab Emirates","IATA":"AUH","ICAO":"OMAA","lat":"24.433000564575195","lon":"54.651100158691406","timezone":"4"},{"name":"Bateen ","city":"Abu Dhabi","country":"United Arab Emirates","IATA":"AZI","ICAO":"OMAD","lat":"24.428300857543945","lon":"54.458099365234375","timezone":"4"},{"name":"Al Dhafra Air Base","city":"Abu Dhabi","country":"United Arab Emirates","IATA":"DHF","ICAO":"OMAM","lat":"24.248199462900004","lon":"54.547698974599996","timezone":"4"},{"name":"Dubai Intl ","city":"Dubai","country":"United Arab Emirates","IATA":"DXB","ICAO":"OMDB","lat":"25.2527999878","lon":"55.3643989563","timezone":"4"},{"name":"Fujairah Intl ","city":"Fujeirah","country":"United Arab Emirates","IATA":"FJR","ICAO":"OMFJ","lat":"25.112199783325195","lon":"56.32400131225586","timezone":"4"},{"name":"Ras Al Khaimah Intl ","city":"Ras Al Khaimah","country":"United Arab Emirates","IATA":"RKT","ICAO":"OMRK","lat":"25.613500595092773","lon":"55.93880081176758","timezone":"4"},{"name":"Sharjah Intl ","city":"Sharjah","country":"United Arab Emirates","IATA":"SHJ","ICAO":"OMSJ","lat":"25.32859992980957","lon":"55.5172004699707","timezone":"4"},{"name":"Khasab Air Base","city":"Khasab","country":"Oman","IATA":"KHS","ICAO":"OOKB","lat":"26.17099952697754","lon":"56.2406005859375","timezone":"4"},{"name":"Masirah Air Base","city":"Masirah","country":"Oman","IATA":"MSH","ICAO":"OOMA","lat":"20.675399780273438","lon":"58.890499114990234","timezone":"4"},{"name":"Muscat Intl ","city":"Muscat","country":"Oman","IATA":"MCT","ICAO":"OOMS","lat":"23.593299865722656","lon":"58.284400939941406","timezone":"4"},{"name":"Salalah ","city":"Salalah","country":"Oman","IATA":"SLL","ICAO":"OOSA","lat":"17.038700103759766","lon":"54.09130096435547","timezone":"4"},{"name":"Thumrait Air Base","city":"Thumrait","country":"Oman","IATA":"TTH","ICAO":"OOTH","lat":"17.666000366210938","lon":"54.024600982666016","timezone":"4"},{"name":"Canton Island ","city":"Canton Island","country":"Kiribati","IATA":"CIS","ICAO":"PCIS","lat":"-2.7681200504300003","lon":"-171.710006714","timezone":"13"},{"name":"Cassidy Intl ","city":"Kiritimati","country":"Kiribati","IATA":"CXI","ICAO":"PLCH","lat":"1.9861600399017334","lon":"-157.35000610351562","timezone":"-12"},{"name":"Henderson Field","city":"Midway","country":"Midway Islands","IATA":"MDY","ICAO":"PMDY","lat":"28.20170021057129","lon":"-177.38099670410156","timezone":"-11"},{"name":"Pohnpei Intl ","city":"Pohnpei","country":"Micronesia","IATA":"PNI","ICAO":"PTPN","lat":"6.985099792480469","lon":"158.20899963378906","timezone":"11"},{"name":"Kosrae Intl ","city":"Kosrae","country":"Micronesia","IATA":"KSA","ICAO":"PTSA","lat":"5.35698","lon":"162.957993","timezone":"11"},{"name":"Comodoro Pierrestegui ","city":"Concordia","country":"Argentina","IATA":"COC","ICAO":"SAAC","lat":"-31.2969","lon":"-57.9966","timezone":"-3"},{"name":"Gualeguaychu ","city":"Gualeguaychu","country":"Argentina","IATA":"GHU","ICAO":"SAAG","lat":"-33.0103","lon":"-58.6131","timezone":"-3"},{"name":"Junin ","city":"Junin","country":"Argentina","IATA":"JNI","ICAO":"SAAJ","lat":"-34.5459","lon":"-60.9306","timezone":"-3"},{"name":"General Urquiza ","city":"Parana","country":"Argentina","IATA":"PRA","ICAO":"SAAP","lat":"-31.7948","lon":"-60.4804","timezone":"-3"},{"name":"Islas Malvinas ","city":"Rosario","country":"Argentina","IATA":"ROS","ICAO":"SAAR","lat":"-32.9036","lon":"-60.785","timezone":"-3"},{"name":"Sauce Viejo ","city":"Santa Fe","country":"Argentina","IATA":"SFN","ICAO":"SAAV","lat":"-31.7117","lon":"-60.8117","timezone":"-3"},{"name":"Jorge Newbery Airpark","city":"Buenos Aires","country":"Argentina","IATA":"AEP","ICAO":"SABE","lat":"-34.5592","lon":"-58.4156","timezone":"-3"},{"name":"Ingeniero Ambrosio Taravella ","city":"Cordoba","country":"Argentina","IATA":"COR","ICAO":"SACO","lat":"-31.323601","lon":"-64.208","timezone":"-3"},{"name":"San Fernando ","city":"San Fernando","country":"Argentina","IATA":"FDO","ICAO":"SADF","lat":"-34.4532","lon":"-58.5896","timezone":"-3"},{"name":"La Plata ","city":"La Plata","country":"Argentina","IATA":"LPG","ICAO":"SADL","lat":"-34.9722","lon":"-57.8947","timezone":"-3"},{"name":"El Palomar ","city":"El Palomar","country":"Argentina","IATA":"EPA","ICAO":"SADP","lat":"-34.6099","lon":"-58.6126","timezone":"-3"},{"name":"Chos Malal ","city":"Chosmadal","country":"Argentina","IATA":"HOS","ICAO":"SAHC","lat":"-37.444698333699996","lon":"-70.2225036621","timezone":"-3"},{"name":"Dr. Arturo H. Illia ","city":"Fuerte Gral Roca","country":"Argentina","IATA":"GNR","ICAO":"SAHR","lat":"-39.0007019043","lon":"-67.6204986572","timezone":"-3"},{"name":"El Plumerillo ","city":"Mendoza","country":"Argentina","IATA":"MDZ","ICAO":"SAME","lat":"-32.8316993713","lon":"-68.7929000854","timezone":"-3"},{"name":"Comodoro D.R. Salomón ","city":"Malargue","country":"Argentina","IATA":"LGS","ICAO":"SAMM","lat":"-35.493598938","lon":"-69.5743026733","timezone":"-3"},{"name":"Suboficial Ay Santiago Germano ","city":"San Rafael","country":"Argentina","IATA":"AFA","ICAO":"SAMR","lat":"-34.588299","lon":"-68.4039","timezone":"-3"},{"name":"Catamarca ","city":"Catamarca","country":"Argentina","IATA":"CTC","ICAO":"SANC","lat":"-28.5956001282","lon":"-65.751701355","timezone":"-3"},{"name":"Vicecomodoro Angel D. La Paz Aragonés ","city":"Santiago Del Estero","country":"Argentina","IATA":"SDE","ICAO":"SANE","lat":"-27.765556335399996","lon":"-64.3099975586","timezone":"-3"},{"name":"Capitan V A Almonacid ","city":"La Rioja","country":"Argentina","IATA":"IRJ","ICAO":"SANL","lat":"-29.3815994263","lon":"-66.7957992554","timezone":"-3"},{"name":"Teniente Benjamin Matienzo ","city":"Tucuman","country":"Argentina","IATA":"TUC","ICAO":"SANT","lat":"-26.8409","lon":"-65.104897","timezone":"-3"},{"name":"Domingo Faustino Sarmiento ","city":"San Juan","country":"Argentina","IATA":"UAQ","ICAO":"SANU","lat":"-31.571501","lon":"-68.418198","timezone":"-3"},{"name":"Area De Material ","city":"Rio Cuarto","country":"Argentina","IATA":"RCU","ICAO":"SAOC","lat":"-33.0850982666","lon":"-64.2612991333","timezone":"-3"},{"name":"Villa Dolores ","city":"Villa Dolores","country":"Argentina","IATA":"VDR","ICAO":"SAOD","lat":"-31.9451999664","lon":"-65.1463012695","timezone":"-3"},{"name":"Villa Reynolds ","city":"Villa Reynolds","country":"Argentina","IATA":"VME","ICAO":"SAOR","lat":"-33.7299003601","lon":"-65.3873977661","timezone":"-3"},{"name":"Brigadier Mayor D Cesar Raul Ojeda ","city":"San Luis","country":"Argentina","IATA":"LUQ","ICAO":"SAOU","lat":"-33.2732009888","lon":"-66.3563995361","timezone":"-3"},{"name":"Corrientes ","city":"Corrientes","country":"Argentina","IATA":"CNQ","ICAO":"SARC","lat":"-27.4455","lon":"-58.7619","timezone":"-3"},{"name":"Resistencia Intl ","city":"Resistencia","country":"Argentina","IATA":"RES","ICAO":"SARE","lat":"-27.45","lon":"-59.0561","timezone":"-3"},{"name":"Formosa ","city":"Formosa","country":"Argentina","IATA":"FMA","ICAO":"SARF","lat":"-26.2127","lon":"-58.2281","timezone":"-3"},{"name":"Cataratas Del Iguazú Intl ","city":"Iguazu Falls","country":"Argentina","IATA":"IGR","ICAO":"SARI","lat":"-25.737301","lon":"-54.4734","timezone":"-3"},{"name":"Paso De Los Libres ","city":"Paso De Los Libres","country":"Argentina","IATA":"AOL","ICAO":"SARL","lat":"-29.6894","lon":"-57.1521","timezone":"-3"},{"name":"Monte Caseros ","city":"Monte Caseros","country":"Argentina","IATA":"MCS","ICAO":"SARM","lat":"-30.2719","lon":"-57.6402","timezone":"-3"},{"name":"Libertador Gral D Jose De San Martin ","city":"Posadas","country":"Argentina","IATA":"PSS","ICAO":"SARP","lat":"-27.3858","lon":"-55.9707","timezone":"-3"},{"name":"Termal ","city":"Presidencia R.s.pena","country":"Argentina","IATA":"PRQ","ICAO":"SARS","lat":"-26.753611","lon":"-60.492222","timezone":"-3"},{"name":"Martin Miguel De Guemes Intl ","city":"Salta","country":"Argentina","IATA":"SLA","ICAO":"SASA","lat":"-24.856000900299996","lon":"-65.4861984253","timezone":"-3"},{"name":"Gobernador Horacio Guzman Intl ","city":"Jujuy","country":"Argentina","IATA":"JUJ","ICAO":"SASJ","lat":"-24.392799","lon":"-65.097801","timezone":"-3"},{"name":"Orán ","city":"Oran","country":"Argentina","IATA":"ORA","ICAO":"SASO","lat":"-23.1527996063","lon":"-64.3292007446","timezone":"-3"},{"name":"El Dorado ","city":"El Dorado","country":"Argentina","IATA":"ELO","ICAO":"SATD","lat":"-26.3974990845","lon":"-54.5746994019","timezone":"-3"},{"name":"Goya ","city":"Goya","country":"Argentina","IATA":"OYA","ICAO":"SATG","lat":"-29.1058","lon":"-59.2189","timezone":"-3"},{"name":"Reconquista ","city":"Reconquista","country":"Argentina","IATA":"RCQ","ICAO":"SATR","lat":"-29.2103","lon":"-59.68","timezone":"-3"},{"name":"Curuzu Cuatia ","city":"Curuzu Cuatia","country":"Argentina","IATA":"UZU","ICAO":"SATU","lat":"-29.7706","lon":"-57.9789","timezone":"-3"},{"name":"El Bolson ","city":"El Bolson","country":"Argentina","IATA":"EHL","ICAO":"SAVB","lat":"-41.9431991577","lon":"-71.5323028564","timezone":"-3"},{"name":"General E. Mosconi ","city":"Comodoro Rivadavia","country":"Argentina","IATA":"CRD","ICAO":"SAVC","lat":"-45.7853","lon":"-67.4655","timezone":"-3"},{"name":"Brigadier Antonio Parodi ","city":"Esquel","country":"Argentina","IATA":"EQS","ICAO":"SAVE","lat":"-42.908000946","lon":"-71.139503479","timezone":"-3"},{"name":"Almirante Marco Andres Zar ","city":"Trelew","country":"Argentina","IATA":"REL","ICAO":"SAVT","lat":"-43.2105","lon":"-65.2703","timezone":"-3"},{"name":"Gobernador Castello ","city":"Viedma","country":"Argentina","IATA":"VDM","ICAO":"SAVV","lat":"-40.8692","lon":"-63.0004","timezone":"-3"},{"name":"El Tehuelche ","city":"Puerto Madryn","country":"Argentina","IATA":"PMY","ICAO":"SAVY","lat":"-42.7592","lon":"-65.1027","timezone":"-3"},{"name":"Puerto Deseado ","city":"Puerto Deseado","country":"Argentina","IATA":"PUD","ICAO":"SAWD","lat":"-47.7353","lon":"-65.9041","timezone":"-3"},{"name":"Hermes Quijada Intl ","city":"Rio Grande","country":"Argentina","IATA":"RGA","ICAO":"SAWE","lat":"-53.7777","lon":"-67.7494","timezone":"-3"},{"name":"Piloto Civil N. Fernández ","city":"Rio Gallegos","country":"Argentina","IATA":"RGL","ICAO":"SAWG","lat":"-51.6089","lon":"-69.3126","timezone":"-3"},{"name":"Malvinas Argentinas ","city":"Ushuaia","country":"Argentina","IATA":"USH","ICAO":"SAWH","lat":"-54.8433","lon":"-68.2958","timezone":"-3"},{"name":"Capitan D Daniel Vazquez ","city":"San Julian","country":"Argentina","IATA":"ULA","ICAO":"SAWJ","lat":"-49.3068","lon":"-67.8026","timezone":"-3"},{"name":"Perito Moreno ","city":"Perito Moreno","country":"Argentina","IATA":"PMQ","ICAO":"SAWP","lat":"-46.537899","lon":"-70.978699","timezone":"-3"},{"name":"Santa Cruz ","city":"Santa Cruz","country":"Argentina","IATA":"RZA","ICAO":"SAWU","lat":"-50.0165","lon":"-68.5792","timezone":"-3"},{"name":"Comandante Espora ","city":"Bahia Blanca","country":"Argentina","IATA":"BHI","ICAO":"SAZB","lat":"-38.725","lon":"-62.1693","timezone":"-3"},{"name":"Brigadier D.H.E. Ruiz ","city":"Colonel Suarez","country":"Argentina","IATA":"CSZ","ICAO":"SAZC","lat":"-37.446098","lon":"-61.889301","timezone":"-3"},{"name":"Olavarria ","city":"Olavarria","country":"Argentina","IATA":"OVR","ICAO":"SAZF","lat":"-36.8899993896","lon":"-60.216598510699995","timezone":"-3"},{"name":"General Pico ","city":"General Pico","country":"Argentina","IATA":"GPO","ICAO":"SAZG","lat":"-35.6962013245","lon":"-63.7583007812","timezone":"-3"},{"name":"Tres Arroyos ","city":"Tres Arroyos","country":"Argentina","IATA":"OYO","ICAO":"SAZH","lat":"-38.3869","lon":"-60.3297","timezone":"-3"},{"name":"Ástor Piazzola Intl ","city":"Mar Del Plata","country":"Argentina","IATA":"MDQ","ICAO":"SAZM","lat":"-37.9342","lon":"-57.5733","timezone":"-3"},{"name":"Presidente Peron ","city":"Neuquen","country":"Argentina","IATA":"NQN","ICAO":"SAZN","lat":"-38.949001","lon":"-68.155701","timezone":"-3"},{"name":"Comodoro Pedro Zanni ","city":"Pehuajo","country":"Argentina","IATA":"PEH","ICAO":"SAZP","lat":"-35.8446","lon":"-61.8576","timezone":"-3"},{"name":"Santa Rosa ","city":"Santa Rosa","country":"Argentina","IATA":"RSA","ICAO":"SAZR","lat":"-36.588299","lon":"-64.275703","timezone":"-3"},{"name":"San Carlos De Bariloche ","city":"San Carlos De Bariloche","country":"Argentina","IATA":"BRC","ICAO":"SAZS","lat":"-41.151199","lon":"-71.157501","timezone":"-3"},{"name":"Héroes De Malvinas ","city":"Tandil","country":"Argentina","IATA":"TDL","ICAO":"SAZT","lat":"-37.2374000549","lon":"-59.2279014587","timezone":"-3"},{"name":"Villa Gesell ","city":"Villa Gesell","country":"Argentina","IATA":"VLG","ICAO":"SAZV","lat":"-37.2354","lon":"-57.0292","timezone":"-3"},{"name":"Cutral-Co ","city":"Cutralco","country":"Argentina","IATA":"CUT","ICAO":"SAZW","lat":"-38.939701080300004","lon":"-69.2646026611","timezone":"-3"},{"name":"Aviador C. Campos ","city":"San Martin Des Andes","country":"Argentina","IATA":"CPC","ICAO":"SAZY","lat":"-40.075401","lon":"-71.137299","timezone":"-3"},{"name":"Conceição do Araguaia ","city":"Conceicao Do Araguaia","country":"Brazil","IATA":"CDJ","ICAO":"SBAA","lat":"-8.348349571228027","lon":"-49.30149841308594","timezone":"-3"},{"name":"Araraquara ","city":"Araracuara","country":"Brazil","IATA":"AQA","ICAO":"SBAQ","lat":"-21.812000274699997","lon":"-48.1329994202","timezone":"-3"},{"name":"Santa Maria ","city":"Aracaju","country":"Brazil","IATA":"AJU","ICAO":"SBAR","lat":"-10.984000206","lon":"-37.0703010559","timezone":"-3"},{"name":"Piloto Osvaldo Marques Dias ","city":"Alta Floresta","country":"Brazil","IATA":"AFL","ICAO":"SBAT","lat":"-9.8663892746","lon":"-56.1049995422","timezone":"-4"},{"name":"Araçatuba ","city":"Aracatuba","country":"Brazil","IATA":"ARU","ICAO":"SBAU","lat":"-21.1413002014","lon":"-50.4247016907","timezone":"-3"},{"name":"Val de Cans/Júlio Cezar Ribeiro Intl ","city":"Belem","country":"Brazil","IATA":"BEL","ICAO":"SBBE","lat":"-1.3792500495900002","lon":"-48.4762992859","timezone":"-3"},{"name":"Comandante Gustavo Kraemer ","city":"Bage","country":"Brazil","IATA":"BGX","ICAO":"SBBG","lat":"-31.39049911499","lon":"-54.112201690674","timezone":"-3"},{"name":"Pampulha – Carlos Drummond de Andrade ","city":"Belo Horizonte","country":"Brazil","IATA":"PLU","ICAO":"SBBH","lat":"-19.851200103759766","lon":"-43.950599670410156","timezone":"-3"},{"name":"Bacacheri ","city":"Curitiba","country":"Brazil","IATA":"BFH","ICAO":"SBBI","lat":"-25.4050998688","lon":"-49.23199844359999","timezone":"-3"},{"name":"Presidente Juscelino Kubistschek Intl ","city":"Brasilia","country":"Brazil","IATA":"BSB","ICAO":"SBBR","lat":"-15.86916732788086","lon":"-47.920833587646484","timezone":"-3"},{"name":"Bauru ","city":"Bauru","country":"Brazil","IATA":"BAU","ICAO":"SBBU","lat":"-22.3449993134","lon":"-49.0537986755","timezone":"-3"},{"name":"Atlas Brasil Cantanhede ","city":"Boa Vista","country":"Brazil","IATA":"BVB","ICAO":"SBBV","lat":"2.84138894081","lon":"-60.6922225952","timezone":"-4"},{"name":"Barra do Garças ","city":"Barra Do Garcas","country":"Brazil","IATA":"BPG","ICAO":"SBBW","lat":"-15.861300468400001","lon":"-52.3889007568","timezone":"-4"},{"name":"Cascavel ","city":"Cascavel","country":"Brazil","IATA":"CAC","ICAO":"SBCA","lat":"-25.0002994537","lon":"-53.500801086399996","timezone":"-3"},{"name":"Tancredo Neves Intl ","city":"Belo Horizonte","country":"Brazil","IATA":"CNF","ICAO":"SBCF","lat":"-19.62444305419922","lon":"-43.97194290161133","timezone":"-3"},{"name":"Campo Grande ","city":"Campo Grande","country":"Brazil","IATA":"CGR","ICAO":"SBCG","lat":"-20.468700408900002","lon":"-54.6725006104","timezone":"-4"},{"name":"Serafin Enoss Bertaso ","city":"Chapeco","country":"Brazil","IATA":"XAP","ICAO":"SBCH","lat":"-27.134199142456","lon":"-52.656600952148","timezone":"-3"},{"name":"Brig. Lysias Augusto Rodrigues ","city":"Carolina","country":"Brazil","IATA":"CLN","ICAO":"SBCI","lat":"-7.32043981552124","lon":"-47.45869827270508","timezone":"-3"},{"name":"Diomício Freitas ","city":"Criciuma","country":"Brazil","IATA":"CCM","ICAO":"SBCM","lat":"-28.7244434357","lon":"-49.4213905334","timezone":"-3"},{"name":"Bartolomeu Lisandro ","city":"Campos","country":"Brazil","IATA":"CAW","ICAO":"SBCP","lat":"-21.698299408","lon":"-41.301700592","timezone":"-3"},{"name":"Corumbá Intl ","city":"Corumba","country":"Brazil","IATA":"CMG","ICAO":"SBCR","lat":"-19.0119438171","lon":"-57.6713905334","timezone":"-4"},{"name":"Afonso Pena ","city":"Curitiba","country":"Brazil","IATA":"CWB","ICAO":"SBCT","lat":"-25.5284996033","lon":"-49.1758003235","timezone":"-3"},{"name":"Caravelas ","city":"Caravelas","country":"Brazil","IATA":"CRQ","ICAO":"SBCV","lat":"-17.652299880981","lon":"-39.253101348877","timezone":"-3"},{"name":"Hugo Cantergiani Regional ","city":"Caxias Do Sul","country":"Brazil","IATA":"CXJ","ICAO":"SBCX","lat":"-29.197099685699996","lon":"-51.1875","timezone":"-3"},{"name":"Marechal Rondon ","city":"Cuiaba","country":"Brazil","IATA":"CGB","ICAO":"SBCY","lat":"-15.6528997421","lon":"-56.1166992188","timezone":"-4"},{"name":"Cruzeiro do Sul ","city":"Cruzeiro do Sul","country":"Brazil","IATA":"CZS","ICAO":"SBCZ","lat":"-7.59990978241","lon":"-72.7695007324","timezone":"-5"},{"name":"Presidente Prudente ","city":"President Prudente","country":"Brazil","IATA":"PPB","ICAO":"SBDN","lat":"-22.1751003265","lon":"-51.4245986938","timezone":"-3"},{"name":"Eduardo Gomes Intl ","city":"Manaus","country":"Brazil","IATA":"MAO","ICAO":"SBEG","lat":"-3.0386099815368652","lon":"-60.04970169067383","timezone":"-4"},{"name":"Jacareacanga ","city":"Jacare-acanga","country":"Brazil","IATA":"JCR","ICAO":"SBEK","lat":"-6.233160018920898","lon":"-57.77690124511719","timezone":"-3"},{"name":"Cataratas Intl ","city":"Foz Do Iguacu","country":"Brazil","IATA":"IGU","ICAO":"SBFI","lat":"-25.600278854370117","lon":"-54.48500061035156","timezone":"-3"},{"name":"Hercílio Luz Intl ","city":"Florianopolis","country":"Brazil","IATA":"FLN","ICAO":"SBFL","lat":"-27.670278549194336","lon":"-48.5525016784668","timezone":"-3"},{"name":"Fernando de Noronha ","city":"Fernando Do Noronha","country":"Brazil","IATA":"FEN","ICAO":"SBFN","lat":"-3.85493","lon":"-32.423302","timezone":"-3"},{"name":"Pinto Martins Intl ","city":"Fortaleza","country":"Brazil","IATA":"FOR","ICAO":"SBFZ","lat":"-3.776279926300049","lon":"-38.53260040283203","timezone":"-3"},{"name":"Rio Galeão – Tom Jobim Intl ","city":"Rio De Janeiro","country":"Brazil","IATA":"GIG","ICAO":"SBGL","lat":"-22.8099994659","lon":"-43.2505569458","timezone":"-3"},{"name":"Guajará-Mirim ","city":"Guajara-mirim","country":"Brazil","IATA":"GJM","ICAO":"SBGM","lat":"-10.786399841308594","lon":"-65.28479766845703","timezone":"-4"},{"name":"Santa Genoveva ","city":"Goiania","country":"Brazil","IATA":"GYN","ICAO":"SBGO","lat":"-16.631999969482422","lon":"-49.220699310302734","timezone":"-3"},{"name":"Guarulhos – Governador André Franco Montoro Intl ","city":"Sao Paulo","country":"Brazil","IATA":"GRU","ICAO":"SBGR","lat":"-23.435556411743164","lon":"-46.47305679321289","timezone":"-3"},{"name":"Guaratinguetá ","city":"Guaratingueta","country":"Brazil","IATA":"GUJ","ICAO":"SBGW","lat":"-22.79159927368164","lon":"-45.20479965209961","timezone":"-3"},{"name":"Altamira ","city":"Altamira","country":"Brazil","IATA":"ATM","ICAO":"SBHT","lat":"-3.2539100646973","lon":"-52.254001617432","timezone":"-3"},{"name":"Itacoatiara ","city":"Itaituba","country":"Brazil","IATA":"ITA","ICAO":"SBIC","lat":"-3.1272599697113037","lon":"-58.481201171875","timezone":"-4"},{"name":"Itaituba ","city":"Itaituba","country":"Brazil","IATA":"ITB","ICAO":"SBIH","lat":"-4.2423400878906","lon":"-56.000701904297","timezone":"-3"},{"name":"Bahia – Jorge Amado ","city":"Ilheus","country":"Brazil","IATA":"IOS","ICAO":"SBIL","lat":"-14.815999984741","lon":"-39.033199310303","timezone":"-3"},{"name":"Usiminas ","city":"Ipatinga","country":"Brazil","IATA":"IPN","ICAO":"SBIP","lat":"-19.470699310303","lon":"-42.487598419189","timezone":"-3"},{"name":"Francisco Vilela do Amaral ","city":"Itumbiara","country":"Brazil","IATA":"ITR","ICAO":"SBIT","lat":"-18.4447002411","lon":"-49.2134017944","timezone":"-3"},{"name":"Prefeito Renato Moreira ","city":"Imperatriz","country":"Brazil","IATA":"IMP","ICAO":"SBIZ","lat":"-5.53129","lon":"-47.459999","timezone":"-3"},{"name":"Francisco de Assis ","city":"Juiz De Fora","country":"Brazil","IATA":"JDF","ICAO":"SBJF","lat":"-21.791500091552734","lon":"-43.38679885864258","timezone":"-3"},{"name":"Presidente Castro Pinto Intl ","city":"Joao Pessoa","country":"Brazil","IATA":"JPA","ICAO":"SBJP","lat":"-7.145833015440001","lon":"-34.9486122131","timezone":"-3"},{"name":"Lauro Carneiro de Loyola ","city":"Joinville","country":"Brazil","IATA":"JOI","ICAO":"SBJV","lat":"-26.22450065612793","lon":"-48.797401428222656","timezone":"-3"},{"name":"Presidente João Suassuna ","city":"Campina Grande","country":"Brazil","IATA":"CPV","ICAO":"SBKG","lat":"-7.26992","lon":"-35.8964","timezone":"-3"},{"name":"Viracopos Intl ","city":"Campinas","country":"Brazil","IATA":"VCP","ICAO":"SBKP","lat":"-23.0074005127","lon":"-47.1344985962","timezone":"-3"},{"name":"Lages ","city":"Lajes","country":"Brazil","IATA":"LAJ","ICAO":"SBLJ","lat":"-27.782100677499997","lon":"-50.28150177","timezone":"-3"},{"name":"Lins ","city":"Lins","country":"Brazil","IATA":"LIP","ICAO":"SBLN","lat":"-21.663999557495","lon":"-49.730499267578","timezone":"-3"},{"name":"Governador José Richa ","city":"Londrina","country":"Brazil","IATA":"LDB","ICAO":"SBLO","lat":"-23.333599090599996","lon":"-51.1301002502","timezone":"-3"},{"name":"Bom Jesus da Lapa ","city":"Bom Jesus Da Lapa","country":"Brazil","IATA":"LAZ","ICAO":"SBLP","lat":"-13.2621002197","lon":"-43.4081001282","timezone":"-3"},{"name":"João Correa da Rocha ","city":"Maraba","country":"Brazil","IATA":"MAB","ICAO":"SBMA","lat":"-5.36858987808","lon":"-49.138000488299994","timezone":"-3"},{"name":"Monte Dourado ","city":"Almeirim","country":"Brazil","IATA":"MEU","ICAO":"SBMD","lat":"-0.889839","lon":"-52.6022","timezone":"-3"},{"name":"Regional de Maringá – Sílvio Nane Junior ","city":"Maringa","country":"Brazil","IATA":"MGF","ICAO":"SBMG","lat":"-23.479444503799996","lon":"-52.01222229","timezone":"-3"},{"name":"Mário Ribeiro ","city":"Montes Claros","country":"Brazil","IATA":"MOC","ICAO":"SBMK","lat":"-16.706899642899998","lon":"-43.818901062","timezone":"-3"},{"name":"Ponta Pelada ","city":"Manaus","country":"Brazil","IATA":"PLL","ICAO":"SBMN","lat":"-3.1460399627685547","lon":"-59.98630142211914","timezone":"-4"},{"name":"Zumbi dos Palmares ","city":"Maceio","country":"Brazil","IATA":"MCZ","ICAO":"SBMO","lat":"-9.510809898376465","lon":"-35.79169845581055","timezone":"-3"},{"name":"Alberto Alcolumbre ","city":"Macapa","country":"Brazil","IATA":"MCP","ICAO":"SBMQ","lat":"0.0506640002131","lon":"-51.0722007751","timezone":"-3"},{"name":"Dix-Sept Rosado ","city":"Mocord","country":"Brazil","IATA":"MVF","ICAO":"SBMS","lat":"-5.2019200324999995","lon":"-37.3642997742","timezone":"-3"},{"name":"Manicoré ","city":"Manicore","country":"Brazil","IATA":"MNX","ICAO":"SBMY","lat":"-5.8113799095154","lon":"-61.278301239014","timezone":"-4"},{"name":"Ministro Victor Konder Intl ","city":"Navegantes","country":"Brazil","IATA":"NVT","ICAO":"SBNF","lat":"-26.879999","lon":"-48.651402","timezone":"-3"},{"name":"Santo Ângelo ","city":"Santo Angelo","country":"Brazil","IATA":"GEL","ICAO":"SBNM","lat":"-28.2817","lon":"-54.169102","timezone":"-3"},{"name":"Governador Aluízio Alves Intl ","city":"Natal","country":"Brazil","IATA":"NAT","ICAO":"SBSG","lat":"-5.768056","lon":"-35.376111","timezone":"-3"},{"name":"Oiapoque ","city":"Oioiapoque","country":"Brazil","IATA":"OYK","ICAO":"SBOI","lat":"3.85548996925354","lon":"-51.79690170288086","timezone":"-3"},{"name":"Salgado Filho ","city":"Porto Alegre","country":"Brazil","IATA":"POA","ICAO":"SBPA","lat":"-29.994400024414062","lon":"-51.1713981628418","timezone":"-3"},{"name":"Prefeito Doutor João Silva Filho ","city":"Parnaiba","country":"Brazil","IATA":"PHB","ICAO":"SBPB","lat":"-2.89374995232","lon":"-41.73199844359999","timezone":"-3"},{"name":"Poços de Caldas – Embaixador Walther Moreira Salles ","city":"Pocos De Caldas","country":"Brazil","IATA":"POO","ICAO":"SBPC","lat":"-21.843000411987","lon":"-46.567901611328","timezone":"-3"},{"name":"Lauro Kurtz ","city":"Passo Fundo","country":"Brazil","IATA":"PFB","ICAO":"SBPF","lat":"-28.243999","lon":"-52.326599","timezone":"-3"},{"name":"João Simões Lopes Neto Intl ","city":"Pelotas","country":"Brazil","IATA":"PET","ICAO":"SBPK","lat":"-31.718399","lon":"-52.327702","timezone":"-3"},{"name":"Senador Nilo Coelho ","city":"Petrolina","country":"Brazil","IATA":"PNZ","ICAO":"SBPL","lat":"-9.362409591674805","lon":"-40.56909942626953","timezone":"-3"},{"name":"Porto Nacional ","city":"Porto Nacional","country":"Brazil","IATA":"PNB","ICAO":"SBPN","lat":"-10.719400405883789","lon":"-48.39970016479492","timezone":"-3"},{"name":"Ponta Porã ","city":"Ponta Pora","country":"Brazil","IATA":"PMG","ICAO":"SBPP","lat":"-22.54960060119629","lon":"-55.702598571777344","timezone":"-4"},{"name":"Governador Jorge Teixeira de Oliveira ","city":"Porto Velho","country":"Brazil","IATA":"PVH","ICAO":"SBPV","lat":"-8.70928955078125","lon":"-63.90230178833008","timezone":"-4"},{"name":"Plácido de Castro ","city":"Rio Branco","country":"Brazil","IATA":"RBR","ICAO":"SBRB","lat":"-9.868888854980469","lon":"-67.89805603027344","timezone":"-5"},{"name":"Guararapes – Gilberto Freyre Intl ","city":"Recife","country":"Brazil","IATA":"REC","ICAO":"SBRF","lat":"-8.126489639282227","lon":"-34.92359924316406","timezone":"-3"},{"name":"Santos Dumont ","city":"Rio De Janeiro","country":"Brazil","IATA":"SDU","ICAO":"SBRJ","lat":"-22.910499572799996","lon":"-43.1631011963","timezone":"-3"},{"name":"Leite Lopes ","city":"Ribeirao Preto","country":"Brazil","IATA":"RAO","ICAO":"SBRP","lat":"-21.136388778686523","lon":"-47.776668548583984","timezone":"-3"},{"name":"Santa Cruz Air Force Base","city":"Rio De Janeiro","country":"Brazil","IATA":"SNZ","ICAO":"SBSC","lat":"-22.9324","lon":"-43.719101","timezone":"-3"},{"name":"Professor Urbano Ernesto Stumpf ","city":"Sao Jose Dos Campos","country":"Brazil","IATA":"SJK","ICAO":"SBSJ","lat":"-23.22920036315918","lon":"-45.86149978637695","timezone":"-3"},{"name":"Marechal Cunha Machado Intl ","city":"Sao Luis","country":"Brazil","IATA":"SLZ","ICAO":"SBSL","lat":"-2.585360050201416","lon":"-44.234100341796875","timezone":"-3"},{"name":"Congonhas ","city":"Sao Paulo","country":"Brazil","IATA":"CGH","ICAO":"SBSP","lat":"-23.626110076904297","lon":"-46.65638732910156","timezone":"-3"},{"name":"Prof. Eribelto Manoel Reino State ","city":"Sao Jose Do Rio Preto","country":"Brazil","IATA":"SJP","ICAO":"SBSR","lat":"-20.816600799599996","lon":"-49.40650177","timezone":"-3"},{"name":"Base Aérea de Santos ","city":"Santos","country":"Brazil","IATA":"SSZ","ICAO":"SBST","lat":"-23.928056716918945","lon":"-46.299720764160156","timezone":"-3"},{"name":"Deputado Luiz Eduardo Magalhães Intl ","city":"Salvador","country":"Brazil","IATA":"SSA","ICAO":"SBSV","lat":"-12.9086112976","lon":"-38.3224983215","timezone":"-3"},{"name":"Trombetas ","city":"Oriximina","country":"Brazil","IATA":"TMT","ICAO":"SBTB","lat":"-1.489599943161","lon":"-56.396800994873","timezone":"-3"},{"name":"Senador Petrônio Portela ","city":"Teresina","country":"Brazil","IATA":"THE","ICAO":"SBTE","lat":"-5.0599398613","lon":"-42.8235015869","timezone":"-3"},{"name":"Tefé ","city":"Tefe","country":"Brazil","IATA":"TFF","ICAO":"SBTF","lat":"-3.38294005394","lon":"-64.7240982056","timezone":"-4"},{"name":"Tarauacá ","city":"Tarauaca","country":"Brazil","IATA":"TRQ","ICAO":"SBTK","lat":"-8.1552600860596","lon":"-70.783302307129","timezone":"-5"},{"name":"Telêmaco Borba ","city":"Telemaco Borba","country":"Brazil","IATA":"TEC","ICAO":"SBTL","lat":"-24.317800521850586","lon":"-50.6515998840332","timezone":"-3"},{"name":"Tabatinga ","city":"Tabatinga","country":"Brazil","IATA":"TBT","ICAO":"SBTT","lat":"-4.2556700706482","lon":"-69.93579864502","timezone":"-4"},